{
	"austria_1": {
		"AT1300002200020100": {
			"bathingWaterIdentifier": "AT1300002200020100",
			"nameText": "NEUE DONAU, STROMAB OSTBAHNBRÜCKE",
			"quality2023": "1 - Excellent",
			"bwProfileUrl": "http://www.ages.at/fileadmin/badegewaesser/pdf/AT1300002200020090.pdf",
			"distance": 8.569018363621586,
			"latitude": 48.2003,
			"longitude": 16.4567,
			"stops": [
				{
					"stop_name": "Wien Donauinsel (U1)",
					"latitude": 48.229195,
					"longitude": 16.411507,
					"stop_id": 8170008,
					"distance": 542
				}
			]
		},
		"AT1300002200020070": {
			"bathingWaterIdentifier": "AT1300002200020070",
			"nameText": "ALTE DONAU, STRANDBAD",
			"quality2023": "1 - Excellent",
			"bwProfileUrl": "http://www.ages.at/fileadmin/badegewaesser/pdf/AT1300002200010060.pdf",
			"distance": 7.06525650897454,
			"latitude": 48.2439,
			"longitude": 16.4192,
			"stops": [
				{
					"stop_name": "Wien Donaustadtbrücke (U2)",
					"latitude": 48.211711,
					"longitude": 16.44012,
					"stop_id": 8170381,
					"distance": 632
				}
			]
		},
		"AT1300002200010060": {
			"bathingWaterIdentifier": "AT1300002200010060",
			"nameText": "ALTE DONAU, STRANDBAD",
			"quality2023": "1 - Excellent",
			"bwProfileUrl": "http://www.ages.at/fileadmin/badegewaesser/pdf/AT1300002200010060.pdf",
			"distance": 7.06525650897454,
			"latitude": 48.2439,
			"longitude": 16.4192,
			"stops": [
				{
					"stop_name": "Wien Alte Donau (U1)",
					"latitude": 48.238283,
					"longitude": 16.42482,
					"stop_id": 8170002,
					"distance": 750
				}
			]
		},
		"AT1300002200010070": {
			"bathingWaterIdentifier": "AT1300002200010070",
			"nameText": "ALTE DONAU, STRANDBAD",
			"quality2023": "1 - Excellent",
			"bwProfileUrl": "http://www.ages.at/fileadmin/badegewaesser/pdf/AT1300002200010060.pdf",
			"distance": 7.06525650897454,
			"latitude": 48.2439,
			"longitude": 16.4192,
			"stops": [
				{
					"stop_name": "Wien Stadlau",
					"latitude": 48.218525,
					"longitude": 16.448129,
					"stop_id": 8104229,
					"distance": 820
				}
			]
		},
		"AT1300002200030010": {
			"bathingWaterIdentifier": "AT1300002200030010",
			"nameText": "NEUE DONAU, STROMAB OSTBAHNBRÜCKE",
			"quality2023": "1 - Excellent",
			"bwProfileUrl": "http://www.ages.at/fileadmin/badegewaesser/pdf/AT1300002200020090.pdf",
			"distance": 8.569018363621586,
			"latitude": 48.2003,
			"longitude": 16.4567,
			"stops": [
				{
					"stop_name": "Wien Hardeggasse (U2)",
					"latitude": 48.220853,
					"longitude": 16.457784,
					"stop_id": 8170193,
					"distance": 898
				}
			]
		}
	},
	"austria_4": {
		"AT3320004900240010": {
			"bathingWaterIdentifier": "AT3320004900240010",
			"nameText": "NATTERER SEE, NORD",
			"quality2023": "1 - Excellent",
			"bwProfileUrl": "http://www.ages.at/fileadmin/badegewaesser/pdf/AT3320003000170010.pdf",
			"distance": 5.238711153095608,
			"latitude": 47.2378,
			"longitude": 11.3422,
			"stops": [
				{
					"stop_name": "Seefeld in Tirol Bahnhof (Terminal)",
					"latitude": 47.328143,
					"longitude": 11.189341,
					"stop_id": 8173289,
					"distance": 624
				}
			]
		},
		"AT3340001400180010": {
			"bathingWaterIdentifier": "AT3340001400180010",
			"nameText": "NATTERER SEE, NORD",
			"quality2023": "1 - Excellent",
			"bwProfileUrl": "http://www.ages.at/fileadmin/badegewaesser/pdf/AT3320003000170010.pdf",
			"distance": 5.238711153095608,
			"latitude": 47.2378,
			"longitude": 11.3422,
			"stops": [
				{
					"stop_name": "Oetz Acherkogelbahn Talstation, Österreich",
					"latitude": 47.198645,
					"longitude": 10.903133,
					"stop_id": 310774,
					"distance": 853
				}
			]
		}
	},
	"austria_5": {
		"AT3420001600030020": {
			"bathingWaterIdentifier": "AT3420001600030020",
			"nameText": "BODENSEE, WOCHERHAFEN BREGENZ",
			"quality2023": "1 - Excellent",
			"bwProfileUrl": "http://www.ages.at/fileadmin/badegewaesser/pdf/AT3420000300030080.pdf",
			"distance": 2.890841834569661,
			"latitude": 47.5065,
			"longitude": 9.7015,
			"stops": [
				{
					"stop_name": "Bregenz Hafen Bahnhof (Seestraße)",
					"latitude": 47.505977,
					"longitude": 9.749772,
					"stop_id": 8172016,
					"distance": 564
				}
			]
		},
		"AT3420000300030050": {
			"bathingWaterIdentifier": "AT3420000300030050",
			"nameText": "BODENSEE, SEECAMPING BREGENZ",
			"quality2023": "1 - Excellent",
			"bwProfileUrl": "http://www.ages.at/fileadmin/badegewaesser/pdf/AT3420000300030040.pdf",
			"distance": 2.0110655356038729,
			"latitude": 47.5075,
			"longitude": 9.7137,
			"stops": [
				{
					"stop_name": "Bregenz",
					"latitude": 47.503001,
					"longitude": 9.739623,
					"stop_id": 8100090,
					"distance": 613
				}
			]
		},
		"AT3420001000050010": {
			"bathingWaterIdentifier": "AT3420001000050010",
			"nameText": "BODENSEE, WOCHERHAFEN BREGENZ",
			"quality2023": "1 - Excellent",
			"bwProfileUrl": "http://www.ages.at/fileadmin/badegewaesser/pdf/AT3420000300030080.pdf",
			"distance": 2.890841834569661,
			"latitude": 47.5065,
			"longitude": 9.7015,
			"stops": [
				{
					"stop_name": "Lustenau Bahnhof (Vorplatz)",
					"latitude": 47.450864,
					"longitude": 9.666766,
					"stop_id": 8173021,
					"distance": 660
				}
			]
		},
		"AT3420001600030070": {
			"bathingWaterIdentifier": "AT3420001600030070",
			"nameText": "BODENSEE, WOCHERHAFEN BREGENZ",
			"quality2023": "1 - Excellent",
			"bwProfileUrl": "http://www.ages.at/fileadmin/badegewaesser/pdf/AT3420000300030080.pdf",
			"distance": 2.890841834569661,
			"latitude": 47.5065,
			"longitude": 9.7015,
			"stops": [
				{
					"stop_name": "Lochau-Hörbranz",
					"latitude": 47.529627,
					"longitude": 9.742194,
					"stop_id": 8100124,
					"distance": 709
				}
			]
		}
	},
	"austria_6": {
		"AT3120000100250010": {
			"bathingWaterIdentifier": "AT3120000100250010",
			"nameText": "PICHLINGERSEE, LINZ",
			"quality2023": "1 - Excellent",
			"bwProfileUrl": "http://www.ages.at/fileadmin/badegewaesser/pdf/AT3120000100250010.pdf",
			"distance": 9.049622691163938,
			"latitude": 48.24,
			"longitude": 14.3846,
			"stops": [
				{
					"stop_name": "Linz-Pichling",
					"latitude": 48.242697,
					"longitude": 14.379819,
					"stop_id": 8101358,
					"distance": 464
				}
			]
		},
		"AT3120005300260020": {
			"bathingWaterIdentifier": "AT3120005300260020",
			"nameText": "PICHLINGERSEE, LINZ",
			"quality2023": "1 - Excellent",
			"bwProfileUrl": "http://www.ages.at/fileadmin/badegewaesser/pdf/AT3120000100250010.pdf",
			"distance": 9.049622691163938,
			"latitude": 48.24,
			"longitude": 14.3846,
			"stops": [
				{
					"stop_name": "Steyregg Linzer Straße",
					"latitude": 48.283912,
					"longitude": 14.369967,
					"stop_id": 8176276,
					"distance": 525
				}
			]
		},
		"AT3140000700130010": {
			"bathingWaterIdentifier": "AT3140000700130010",
			"nameText": "PICHLINGERSEE, LINZ",
			"quality2023": "1 - Excellent",
			"bwProfileUrl": "http://www.ages.at/fileadmin/badegewaesser/pdf/AT3120000100250010.pdf",
			"distance": 9.049622691163938,
			"latitude": 48.24,
			"longitude": 14.3846,
			"stops": [
				{
					"stop_name": "Hinterstoder",
					"latitude": 47.774646,
					"longitude": 14.178964,
					"stop_id": 8100172,
					"distance": 794
				}
			]
		}
	},
	"belgium_2": {
		"BEVL_BW_BRU04": {
			"bathingWaterIdentifier": "BEVL_BW_BRU04",
			"nameText": "BRUGGE COUPURE",
			"quality2023": "2 - Good",
			"bwProfileUrl": "https://kwaliteitzwemwater.be/nl/coupure",
			"distance": 1.7260731334388333,
			"latitude": 51.20827,
			"longitude": 3.234,
			"stops": [
				{
					"stop_name": "Zeebrugge-Strand",
					"latitude": 51.330644,
					"longitude": 3.183907,
					"stop_id": 8800100,
					"distance": 795
				}
			]
		}
	},
	"belgium_5": {
		"BEVL_BW_VEU01": {
			"bathingWaterIdentifier": "BEVL_BW_VEU01",
			"nameText": "ROTSELAAR DOMEIN TER HEIDE",
			"quality2023": "2 - Good",
			"bwProfileUrl": "https://kwaliteitzwemwater.be/nl/domein-ter-heide/ter-heide-zwemvijver-rotselaar",
			"distance": 8.8433797309324,
			"latitude": 50.9609,
			"longitude": 4.72385,
			"stops": [
				{
					"stop_name": "Koksijde",
					"latitude": 51.07909,
					"longitude": 2.653085,
					"stop_id": 8800075,
					"distance": 826
				}
			]
		}
	},
	"bulgaria_3": {
		"BG3310610135003013": {
			"bathingWaterIdentifier": "BG3310610135003013",
			"nameText": "СВ.СВ. КОНСТАНТИН И ЕЛЕНА-ГОЛЯМ ПЛАЖ",
			"quality2023": "1 - Excellent",
			"bwProfileUrl": "http://www.rzi-varna.com/prof/profil_6.pdf",
			"distance": 9.26827269748001,
			"latitude": 43.2325,
			"longitude": 28.0153,
			"stops": [
				{
					"stop_name": "Varna",
					"latitude": 43.197968,
					"longitude": 27.911246,
					"stop_id": 5200016,
					"distance": 872
				}
			]
		}
	},
	"croatia_1": {
		"HRBWI-INLAND_DRDG1": {
			"bathingWaterIdentifier": "HRBWI-INLAND_DRDG1",
			"nameText": "BUNDEK VELIKO JEZERO JUG",
			"quality2023": "1 - Excellent",
			"bwProfileUrl": "http://baltazar.izor.hr/plazekpub/profil_plaze_url?p_jezik=eng&plok=13019",
			"distance": 2.5374885359522585,
			"latitude": 45.7847,
			"longitude": 15.9872,
			"stops": [
				{
					"stop_name": "Osijek Dravski Most",
					"latitude": 45.558778,
					"longitude": 18.703748,
					"stop_id": 7800416,
					"distance": 277
				}
			]
		},
		"HUBW_00306": {
			"bathingWaterIdentifier": "HUBW_00306",
			"nameText": "JARUN OTOK TRESNJEVKA",
			"quality2023": "3 - Sufficient",
			"bwProfileUrl": "http://baltazar.izor.hr/plazekpub/profil_plaze_url?p_jezik=eng&plok=13014",
			"distance": 6.2729201637606268,
			"latitude": 45.78131,
			"longitude": 15.91859,
			"stops": [
				{
					"stop_name": "Kecskemet-Mariavaros",
					"latitude": 46.901263,
					"longitude": 19.675562,
					"stop_id": 5500631,
					"distance": 900
				}
			]
		}
	},
	"croatia_16": {
		"HRBWC-COAST-HR3-6051": {
			"bathingWaterIdentifier": "HRBWC-COAST-HR3-6051",
			"nameText": "SABLICEVO",
			"quality2023": "1 - Excellent",
			"bwProfileUrl": "https://vrtlac.izor.hr/ords/kakvoca/profil_plaze_url?p_jezik=eng&plok=6050",
			"distance": 3.0934350166045725,
			"latitude": 45.31749,
			"longitude": 14.46544,
			"stops": [
				{
					"stop_name": "Susak Pecine",
					"latitude": 45.320492,
					"longitude": 14.464704,
					"stop_id": 7800107,
					"distance": 249
				}
			]
		},
		"HRBWC-COAST-HR3-6050": {
			"bathingWaterIdentifier": "HRBWC-COAST-HR3-6050",
			"nameText": "SABLICEVO",
			"quality2023": "1 - Excellent",
			"bwProfileUrl": "https://vrtlac.izor.hr/ords/kakvoca/profil_plaze_url?p_jezik=eng&plok=6050",
			"distance": 3.0934350166045725,
			"latitude": 45.31749,
			"longitude": 14.46544,
			"stops": [
				{
					"stop_name": "Susak Pecine",
					"latitude": 45.320492,
					"longitude": 14.464704,
					"stop_id": 7800107,
					"distance": 338
				}
			]
		},
		"HRBWC-COAST-HR3-6264": {
			"bathingWaterIdentifier": "HRBWC-COAST-HR3-6264",
			"nameText": "GLAVANOVO ISTOK",
			"quality2023": "1 - Excellent",
			"bwProfileUrl": "https://vrtlac.izor.hr/ords/kakvoca/profil_plaze_url?p_jezik=eng&plok=6264",
			"distance": 3.4432876921629518,
			"latitude": 45.31521,
			"longitude": 14.46877,
			"stops": [
				{
					"stop_name": "Susak Pecine",
					"latitude": 45.320492,
					"longitude": 14.464704,
					"stop_id": 7800107,
					"distance": 668
				}
			]
		},
		"HRBWC-COAST-HR3-6047": {
			"bathingWaterIdentifier": "HRBWC-COAST-HR3-6047",
			"nameText": "GRCEVO",
			"quality2023": "1 - Excellent",
			"bwProfileUrl": "https://vrtlac.izor.hr/ords/kakvoca/profil_plaze_url?p_jezik=eng&plok=6046",
			"distance": 3.892898797987233,
			"latitude": 45.31193,
			"longitude": 14.47269,
			"stops": [
				{
					"stop_name": "Susak Pecine",
					"latitude": 45.320492,
					"longitude": 14.464704,
					"stop_id": 7800107,
					"distance": 924
				}
			]
		}
	},
	"croatia_2": {
		"HRBWC-COAST-HR4-2057": {
			"bathingWaterIdentifier": "HRBWC-COAST-HR4-2057",
			"nameText": "ZNJAN ISTOK",
			"quality2023": "1 - Excellent",
			"bwProfileUrl": "https://vrtlac.izor.hr/ords/kakvoca/profil_plaze_url?p_jezik=eng&plok=2043",
			"distance": 3.1004816483041575,
			"latitude": 43.50147,
			"longitude": 16.48093,
			"stops": [
				{
					"stop_name": "Kastel Sucurac",
					"latitude": 43.548934,
					"longitude": 16.429522,
					"stop_id": 7800324,
					"distance": 432
				}
			]
		},
		"HRBWC-COAST-HR4-2050": {
			"bathingWaterIdentifier": "HRBWC-COAST-HR4-2050",
			"nameText": "ZNJAN ISTOK",
			"quality2023": "1 - Excellent",
			"bwProfileUrl": "https://vrtlac.izor.hr/ords/kakvoca/profil_plaze_url?p_jezik=eng&plok=2043",
			"distance": 3.1004816483041575,
			"latitude": 43.50147,
			"longitude": 16.48093,
			"stops": [
				{
					"stop_name": "Split",
					"latitude": 43.504887,
					"longitude": 16.44279,
					"stop_id": 7800016,
					"distance": 492
				}
			]
		},
		"HRBWC-COAST-HR4-2049": {
			"bathingWaterIdentifier": "HRBWC-COAST-HR4-2049",
			"nameText": "ZNJAN ISTOK",
			"quality2023": "1 - Excellent",
			"bwProfileUrl": "https://vrtlac.izor.hr/ords/kakvoca/profil_plaze_url?p_jezik=eng&plok=2043",
			"distance": 3.1004816483041575,
			"latitude": 43.50147,
			"longitude": 16.48093,
			"stops": [
				{
					"stop_name": "Split",
					"latitude": 43.504887,
					"longitude": 16.44279,
					"stop_id": 7800016,
					"distance": 545
				}
			]
		},
		"HRBWC-COAST-HR4-2047": {
			"bathingWaterIdentifier": "HRBWC-COAST-HR4-2047",
			"nameText": "ZNJAN ISTOK",
			"quality2023": "1 - Excellent",
			"bwProfileUrl": "https://vrtlac.izor.hr/ords/kakvoca/profil_plaze_url?p_jezik=eng&plok=2043",
			"distance": 3.1004816483041575,
			"latitude": 43.50147,
			"longitude": 16.48093,
			"stops": [
				{
					"stop_name": "Split",
					"latitude": 43.504887,
					"longitude": 16.44279,
					"stop_id": 7800016,
					"distance": 691
				}
			]
		},
		"HRBWC-COAST-HR4-2058": {
			"bathingWaterIdentifier": "HRBWC-COAST-HR4-2058",
			"nameText": "KAMP",
			"quality2023": "1 - Excellent",
			"bwProfileUrl": "https://vrtlac.izor.hr/ords/kakvoca/profil_plaze_url?p_jezik=eng&plok=2058",
			"distance": 5.933305107420263,
			"latitude": 43.54702,
			"longitude": 16.39767,
			"stops": [
				{
					"stop_name": "Kastel Gomilica",
					"latitude": 43.553483,
					"longitude": 16.4001,
					"stop_id": 7876514,
					"distance": 745
				}
			]
		},
		"HRBWC-COAST-HR4-2059": {
			"bathingWaterIdentifier": "HRBWC-COAST-HR4-2059",
			"nameText": "KAMP",
			"quality2023": "1 - Excellent",
			"bwProfileUrl": "https://vrtlac.izor.hr/ords/kakvoca/profil_plaze_url?p_jezik=eng&plok=2058",
			"distance": 5.933305107420263,
			"latitude": 43.54702,
			"longitude": 16.39767,
			"stops": [
				{
					"stop_name": "Kastel Gomilica",
					"latitude": 43.553483,
					"longitude": 16.4001,
					"stop_id": 7876514,
					"distance": 895
				}
			]
		},
		"HRBWC-COAST-HR4-2060": {
			"bathingWaterIdentifier": "HRBWC-COAST-HR4-2060",
			"nameText": "BALETNA SKOLA",
			"quality2023": "1 - Excellent",
			"bwProfileUrl": "https://vrtlac.izor.hr/ords/kakvoca/profil_plaze_url?p_jezik=eng&plok=2060",
			"distance": 7.068434419407974,
			"latitude": 43.54825,
			"longitude": 16.37872,
			"stops": [
				{
					"stop_name": "Kastel Kambelovac",
					"latitude": 43.555541,
					"longitude": 16.385699,
					"stop_id": 7876513,
					"distance": 986
				}
			]
		}
	},
	"czechia_1": {
		"CZKO106001": {
			"bathingWaterIdentifier": "CZKO106001",
			"nameText": "KOUPALIŠTĚ DŽBÁN",
			"quality2023": "0 - Not classified",
			"bwProfileUrl": "https://eagri.cz/public/web/file/128141/PK106051___Dzban_2021.pdf",
			"distance": 8.60722151140598,
			"latitude": 50.09459,
			"longitude": 14.3325,
			"stops": [
				{
					"stop_name": "Praha Vozovna Vokovice",
					"latitude": 50.093081,
					"longitude": 14.331008,
					"stop_id": 5480225,
					"distance": 198
				}
			]
		}
	},
	"czechia_7": {
		"CZKO710701": {
			"bathingWaterIdentifier": "CZKO710701",
			"nameText": "PODĚBRADY - U PŘÍSTAVIŠTĚ",
			"quality2023": "1 - Excellent",
			"bwProfileUrl": "https://eagri.cz/public/web/file/128607/Podebrady.pdf",
			"distance": 4.9803124889352079,
			"latitude": 49.6231,
			"longitude": 17.2266,
			"stops": [
				{
					"stop_name": "Olomouc-Repcin",
					"latitude": 49.616743,
					"longitude": 17.224006,
					"stop_id": 5402241,
					"distance": 731
				}
			]
		}
	},
	"denmark_1": {
		"DKBW1906": {
			"bathingWaterIdentifier": "DKBW1906",
			"nameText": "STRANDEN VED VALBYPARKEN",
			"quality2023": "2 - Good",
			"bwProfileUrl": "https://pulsproddatasto.blob.core.windows.net/files/smzb3drs.pdf",
			"distance": 6.590994989206551,
			"latitude": 55.63723,
			"longitude": 12.52496,
			"stops": [
				{
					"stop_name": "Sydhavn st",
					"latitude": 55.654788,
					"longitude": 12.537516,
					"stop_id": 8602500,
					"distance": 638
				}
			]
		},
		"DKBW1907": {
			"bathingWaterIdentifier": "DKBW1907",
			"nameText": "STRANDEN VED VALBYPARKEN",
			"quality2023": "2 - Good",
			"bwProfileUrl": "https://pulsproddatasto.blob.core.windows.net/files/smzb3drs.pdf",
			"distance": 6.590994989206551,
			"latitude": 55.63723,
			"longitude": 12.52496,
			"stops": [
				{
					"stop_name": "Sydhavn st",
					"latitude": 55.654788,
					"longitude": 12.537516,
					"stop_id": 8602500,
					"distance": 964
				}
			]
		}
	},
	"denmark_8": {
		"DKBW962": {
			"bathingWaterIdentifier": "DKBW962",
			"nameText": "SKAGEN SØNDRE STRAND,V.VIPPEFYR",
			"quality2023": "1 - Excellent",
			"bwProfileUrl": "https://pulsproddatasto.blob.core.windows.net/files/fy3jjicb.pdf",
			"distance": 0.9050167607543647,
			"latitude": 57.72323,
			"longitude": 10.6064,
			"stops": [
				{
					"stop_name": "Skagen St.(Bus)",
					"latitude": 57.723647,
					"longitude": 10.592223,
					"stop_id": 8641101,
					"distance": 843
				}
			]
		}
	},
	"denmark_9": {
		"DKBW370": {
			"bathingWaterIdentifier": "DKBW370",
			"nameText": "ESRUM SØ, SØRUP SEJLKLUBBEN",
			"quality2023": "1 - Excellent",
			"bwProfileUrl": "https://pulsproddatasto.blob.core.windows.net/files/1vxleycc.pdf",
			"distance": 9.638395481983779,
			"latitude": 55.97864,
			"longitude": 12.38037,
			"stops": [
				{
					"stop_name": "Frederikssund st",
					"latitude": 55.835786,
					"longitude": 12.065456,
					"stop_id": 8600632,
					"distance": 717
				}
			]
		},
		"DKBW424": {
			"bathingWaterIdentifier": "DKBW424",
			"nameText": "OFF. BADESTRAND VED RUNGSTED ROKLUB",
			"quality2023": "1 - Excellent",
			"bwProfileUrl": "https://pulsproddatasto.blob.core.windows.net/files/dfwr4qoz.pdf",
			"distance": 9.133473666473798,
			"latitude": 55.882,
			"longitude": 12.54552,
			"stops": [
				{
					"stop_name": "Rungsted Kyst st",
					"latitude": 55.88235,
					"longitude": 12.531547,
					"stop_id": 8602045,
					"distance": 872
				}
			]
		}
	},
	"finland_8": {
		"FR10175056D075002": {
			"bathingWaterIdentifier": "FR10175056D075002",
			"nameText": "MARIEBAD",
			"quality2023": "3 - Sufficient",
			"bwProfileUrl": "http://www.amhm.ax/badstrander",
			"distance": 1.4768799117633438,
			"latitude": 60.1081,
			"longitude": 19.9453,
			"stops": [
				{
					"stop_name": "Paris Est",
					"latitude": 48.876976,
					"longitude": 2.35912,
					"stop_id": 8700011,
					"distance": 394
				}
			]
		},
		"FR10277210D077003": {
			"bathingWaterIdentifier": "FR10277210D077003",
			"nameText": "MARIEBAD",
			"quality2023": "3 - Sufficient",
			"bwProfileUrl": "http://www.amhm.ax/badstrander",
			"distance": 1.4768799117633438,
			"latitude": 60.1081,
			"longitude": 19.9453,
			"stops": [
				{
					"stop_name": "La Grande Paroisse",
					"latitude": 48.378686,
					"longitude": 2.897151,
					"stop_id": 8703581,
					"distance": 558
				}
			]
		},
		"FR10277458D077007": {
			"bathingWaterIdentifier": "FR10277458D077007",
			"nameText": "MARIEBAD",
			"quality2023": "3 - Sufficient",
			"bwProfileUrl": "http://www.amhm.ax/badstrander",
			"distance": 1.4768799117633438,
			"latitude": 60.1081,
			"longitude": 19.9453,
			"stops": [
				{
					"stop_name": "Souppes",
					"latitude": 48.181696,
					"longitude": 2.735094,
					"stop_id": 8704519,
					"distance": 758
				}
			]
		},
		"FR10378642D078080": {
			"bathingWaterIdentifier": "FR10378642D078080",
			"nameText": "MARIEBAD",
			"quality2023": "3 - Sufficient",
			"bwProfileUrl": "http://www.amhm.ax/badstrander",
			"distance": 1.4768799117633438,
			"latitude": 60.1081,
			"longitude": 19.9453,
			"stops": [
				{
					"stop_name": "Les Clairières de Verneuil",
					"latitude": 48.992739,
					"longitude": 1.955675,
					"stop_id": 8703763,
					"distance": 924
				}
			]
		}
	},
	"france_161": {
		"FRL0306104M006645": {
			"bathingWaterIdentifier": "FRL0306104M006645",
			"nameText": "BEAU RIVAGE",
			"quality2023": "2 - Good",
			"bwProfileUrl": "http://baignades.sante.gouv.fr/baignades/profil.do?idSite=001208&amp;codeDept=006",
			"distance": 1.319372096996494,
			"latitude": 43.69483,
			"longitude": 7.2706,
			"stops": [
				{
					"stop_name": "Monte Carlo Country Club",
					"latitude": 43.754356,
					"longitude": 7.448201,
					"stop_id": 8705344,
					"distance": 99
				}
			]
		},
		"FRL0306138M006035": {
			"bathingWaterIdentifier": "FRL0306138M006035",
			"nameText": "NOUVEAU PORT",
			"quality2023": "2 - Good",
			"bwProfileUrl": "http://baignades.sante.gouv.fr/baignades/profil.do?idSite=001250&amp;codeDept=006",
			"distance": 5.950766509241036,
			"latitude": 43.69216,
			"longitude": 7.33366,
			"stops": [
				{
					"stop_name": "Theoule-sur-Mer",
					"latitude": 43.513418,
					"longitude": 6.936832,
					"stop_id": 8702103,
					"distance": 114
				}
			]
		},
		"FRL0306079M006050": {
			"bathingWaterIdentifier": "FRL0306079M006050",
			"nameText": "MARCO POLO",
			"quality2023": "1 - Excellent",
			"bwProfileUrl": "http://baignades.sante.gouv.fr/baignades/profil.do?idSite=001224&amp;codeDept=006",
			"distance": 7.480089080445373,
			"latitude": 43.71966,
			"longitude": 7.35251,
			"stops": [
				{
					"stop_name": "Mandelieu La Napoule",
					"latitude": 43.524241,
					"longitude": 6.941533,
					"stop_id": 8701499,
					"distance": 155
				}
			]
		},
		"FRL0306059M006615": {
			"bathingWaterIdentifier": "FRL0306059M006615",
			"nameText": "MARCO POLO",
			"quality2023": "1 - Excellent",
			"bwProfileUrl": "http://baignades.sante.gouv.fr/baignades/profil.do?idSite=001224&amp;codeDept=006",
			"distance": 7.480089080445373,
			"latitude": 43.71966,
			"longitude": 7.35251,
			"stops": [
				{
					"stop_name": "Eze",
					"latitude": 43.722183,
					"longitude": 7.356799,
					"stop_id": 8701100,
					"distance": 173
				}
			]
		},
		"FRL0306104M006660": {
			"bathingWaterIdentifier": "FRL0306104M006660",
			"nameText": "BEAU RIVAGE",
			"quality2023": "2 - Good",
			"bwProfileUrl": "http://baignades.sante.gouv.fr/baignades/profil.do?idSite=001208&amp;codeDept=006",
			"distance": 1.319372096996494,
			"latitude": 43.69483,
			"longitude": 7.2706,
			"stops": [
				{
					"stop_name": "Cap-Martin-Roquebrun",
					"latitude": 43.760567,
					"longitude": 7.457226,
					"stop_id": 8700484,
					"distance": 217
				}
			]
		},
		"FRL0306079M006045": {
			"bathingWaterIdentifier": "FRL0306079M006045",
			"nameText": "MARCO POLO",
			"quality2023": "1 - Excellent",
			"bwProfileUrl": "http://baignades.sante.gouv.fr/baignades/profil.do?idSite=001224&amp;codeDept=006",
			"distance": 7.480089080445373,
			"latitude": 43.71966,
			"longitude": 7.35251,
			"stops": [
				{
					"stop_name": "Mandelieu La Napoule",
					"latitude": 43.524241,
					"longitude": 6.941533,
					"stop_id": 8701499,
					"distance": 296
				}
			]
		},
		"FRL0306104M006655": {
			"bathingWaterIdentifier": "FRL0306104M006655",
			"nameText": "BEAU RIVAGE",
			"quality2023": "2 - Good",
			"bwProfileUrl": "http://baignades.sante.gouv.fr/baignades/profil.do?idSite=001208&amp;codeDept=006",
			"distance": 1.319372096996494,
			"latitude": 43.69483,
			"longitude": 7.2706,
			"stops": [
				{
					"stop_name": "Cap-Martin-Roquebrun",
					"latitude": 43.760567,
					"longitude": 7.457226,
					"stop_id": 8700484,
					"distance": 370
				}
			]
		},
		"FRL0306104M006650": {
			"bathingWaterIdentifier": "FRL0306104M006650",
			"nameText": "BEAU RIVAGE",
			"quality2023": "2 - Good",
			"bwProfileUrl": "http://baignades.sante.gouv.fr/baignades/profil.do?idSite=001208&amp;codeDept=006",
			"distance": 1.319372096996494,
			"latitude": 43.69483,
			"longitude": 7.2706,
			"stops": [
				{
					"stop_name": "Monte Carlo Country Club",
					"latitude": 43.754356,
					"longitude": 7.448201,
					"stop_id": 8705344,
					"distance": 428
				}
			]
		},
		"FRL0306059M006610": {
			"bathingWaterIdentifier": "FRL0306059M006610",
			"nameText": "MARCO POLO",
			"quality2023": "1 - Excellent",
			"bwProfileUrl": "http://baignades.sante.gouv.fr/baignades/profil.do?idSite=001224&amp;codeDept=006",
			"distance": 7.480089080445373,
			"latitude": 43.71966,
			"longitude": 7.35251,
			"stops": [
				{
					"stop_name": "Eze",
					"latitude": 43.722183,
					"longitude": 7.356799,
					"stop_id": 8701100,
					"distance": 444
				}
			]
		},
		"FRL0306138M006030": {
			"bathingWaterIdentifier": "FRL0306138M006030",
			"nameText": "NOUVEAU PORT",
			"quality2023": "2 - Good",
			"bwProfileUrl": "http://baignades.sante.gouv.fr/baignades/profil.do?idSite=001250&amp;codeDept=006",
			"distance": 5.950766509241036,
			"latitude": 43.69216,
			"longitude": 7.33366,
			"stops": [
				{
					"stop_name": "Theoule-sur-Mer",
					"latitude": 43.513418,
					"longitude": 6.936832,
					"stop_id": 8702103,
					"distance": 450
				}
			]
		},
		"FRL0306123M006400": {
			"bathingWaterIdentifier": "FRL0306123M006400",
			"nameText": "NOUVEAU PORT",
			"quality2023": "2 - Good",
			"bwProfileUrl": "http://baignades.sante.gouv.fr/baignades/profil.do?idSite=001250&amp;codeDept=006",
			"distance": 5.950766509241036,
			"latitude": 43.69216,
			"longitude": 7.33366,
			"stops": [
				{
					"stop_name": "St-Laurent-du-Var",
					"latitude": 43.662387,
					"longitude": 7.194597,
					"stop_id": 8701995,
					"distance": 508
				}
			]
		},
		"FRL0306138M006025": {
			"bathingWaterIdentifier": "FRL0306138M006025",
			"nameText": "NOUVEAU PORT",
			"quality2023": "2 - Good",
			"bwProfileUrl": "http://baignades.sante.gouv.fr/baignades/profil.do?idSite=001250&amp;codeDept=006",
			"distance": 5.950766509241036,
			"latitude": 43.69216,
			"longitude": 7.33366,
			"stops": [
				{
					"stop_name": "Theoule-sur-Mer",
					"latitude": 43.513418,
					"longitude": 6.936832,
					"stop_id": 8702103,
					"distance": 572
				}
			]
		},
		"FRL0306123M006401": {
			"bathingWaterIdentifier": "FRL0306123M006401",
			"nameText": "NOUVEAU PORT",
			"quality2023": "2 - Good",
			"bwProfileUrl": "http://baignades.sante.gouv.fr/baignades/profil.do?idSite=001250&amp;codeDept=006",
			"distance": 5.950766509241036,
			"latitude": 43.69216,
			"longitude": 7.33366,
			"stops": [
				{
					"stop_name": "St-Laurent-du-Var",
					"latitude": 43.662387,
					"longitude": 7.194597,
					"stop_id": 8701995,
					"distance": 600
				}
			]
		},
		"FRL0306123M006395": {
			"bathingWaterIdentifier": "FRL0306123M006395",
			"nameText": "NOUVEAU PORT",
			"quality2023": "2 - Good",
			"bwProfileUrl": "http://baignades.sante.gouv.fr/baignades/profil.do?idSite=001250&amp;codeDept=006",
			"distance": 5.950766509241036,
			"latitude": 43.69216,
			"longitude": 7.33366,
			"stops": [
				{
					"stop_name": "St-Laurent-du-Var",
					"latitude": 43.662387,
					"longitude": 7.194597,
					"stop_id": 8701995,
					"distance": 615
				}
			]
		},
		"FRL0306079M006040": {
			"bathingWaterIdentifier": "FRL0306079M006040",
			"nameText": "MARCO POLO",
			"quality2023": "1 - Excellent",
			"bwProfileUrl": "http://baignades.sante.gouv.fr/baignades/profil.do?idSite=001224&amp;codeDept=006",
			"distance": 7.480089080445373,
			"latitude": 43.71966,
			"longitude": 7.35251,
			"stops": [
				{
					"stop_name": "Theoule-sur-Mer",
					"latitude": 43.513418,
					"longitude": 6.936832,
					"stop_id": 8702103,
					"distance": 617
				}
			]
		},
		"FRL0306104M006640": {
			"bathingWaterIdentifier": "FRL0306104M006640",
			"nameText": "BEAU RIVAGE",
			"quality2023": "2 - Good",
			"bwProfileUrl": "http://baignades.sante.gouv.fr/baignades/profil.do?idSite=001208&amp;codeDept=006",
			"distance": 1.319372096996494,
			"latitude": 43.69483,
			"longitude": 7.2706,
			"stops": [
				{
					"stop_name": "Monte Carlo Country Club",
					"latitude": 43.754356,
					"longitude": 7.448201,
					"stop_id": 8705344,
					"distance": 636
				}
			]
		},
		"FRL0306059M006620": {
			"bathingWaterIdentifier": "FRL0306059M006620",
			"nameText": "MARCO POLO",
			"quality2023": "1 - Excellent",
			"bwProfileUrl": "http://baignades.sante.gouv.fr/baignades/profil.do?idSite=001224&amp;codeDept=006",
			"distance": 7.480089080445373,
			"latitude": 43.71966,
			"longitude": 7.35251,
			"stops": [
				{
					"stop_name": "Eze",
					"latitude": 43.722183,
					"longitude": 7.356799,
					"stop_id": 8701100,
					"distance": 776
				}
			]
		},
		"FRL0306123M006391": {
			"bathingWaterIdentifier": "FRL0306123M006391",
			"nameText": "NOUVEAU PORT",
			"quality2023": "2 - Good",
			"bwProfileUrl": "http://baignades.sante.gouv.fr/baignades/profil.do?idSite=001250&amp;codeDept=006",
			"distance": 5.950766509241036,
			"latitude": 43.69216,
			"longitude": 7.33366,
			"stops": [
				{
					"stop_name": "St-Laurent-du-Var",
					"latitude": 43.662387,
					"longitude": 7.194597,
					"stop_id": 8701995,
					"distance": 794
				}
			]
		},
		"FRL0306079M006055": {
			"bathingWaterIdentifier": "FRL0306079M006055",
			"nameText": "MARCO POLO",
			"quality2023": "1 - Excellent",
			"bwProfileUrl": "http://baignades.sante.gouv.fr/baignades/profil.do?idSite=001224&amp;codeDept=006",
			"distance": 7.480089080445373,
			"latitude": 43.71966,
			"longitude": 7.35251,
			"stops": [
				{
					"stop_name": "Mandelieu La Napoule",
					"latitude": 43.524241,
					"longitude": 6.941533,
					"stop_id": 8701499,
					"distance": 853
				}
			]
		},
		"FRL0306104M006639": {
			"bathingWaterIdentifier": "FRL0306104M006639",
			"nameText": "BEAU RIVAGE",
			"quality2023": "2 - Good",
			"bwProfileUrl": "http://baignades.sante.gouv.fr/baignades/profil.do?idSite=001208&amp;codeDept=006",
			"distance": 1.319372096996494,
			"latitude": 43.69483,
			"longitude": 7.2706,
			"stops": [
				{
					"stop_name": "Monte Carlo Country Club",
					"latitude": 43.754356,
					"longitude": 7.448201,
					"stop_id": 8705344,
					"distance": 877
				}
			]
		},
		"FRL0306138M006020": {
			"bathingWaterIdentifier": "FRL0306138M006020",
			"nameText": "NOUVEAU PORT",
			"quality2023": "2 - Good",
			"bwProfileUrl": "http://baignades.sante.gouv.fr/baignades/profil.do?idSite=001250&amp;codeDept=006",
			"distance": 5.950766509241036,
			"latitude": 43.69216,
			"longitude": 7.33366,
			"stops": [
				{
					"stop_name": "Theoule-sur-Mer",
					"latitude": 43.513418,
					"longitude": 6.936832,
					"stop_id": 8702103,
					"distance": 902
				}
			]
		}
	},
	"france_202": {
		"FRH0335093M035710": {
			"bathingWaterIdentifier": "FRH0335093M035710",
			"nameText": "L'ECLUSE",
			"quality2023": "2 - Good",
			"bwProfileUrl": "http://baignades.sante.gouv.fr/baignades/profil.do?idSite=000843&amp;codeDept=035",
			"distance": 3.8824518741962588,
			"latitude": 48.63625,
			"longitude": -2.05453,
			"stops": [
				{
					"stop_name": "Dinard Office du Tourisme",
					"latitude": 48.634573,
					"longitude": -2.054835,
					"stop_id": 8703216,
					"distance": 188
				}
			]
		},
		"FRH0335167D035160": {
			"bathingWaterIdentifier": "FRH0335167D035160",
			"nameText": "ST ENOGAT",
			"quality2023": "2 - Good",
			"bwProfileUrl": "http://baignades.sante.gouv.fr/baignades/profil.do?idSite=000845&amp;codeDept=035",
			"distance": 4.798327556174234,
			"latitude": 48.63873,
			"longitude": -2.06826,
			"stops": [
				{
					"stop_name": "Martigne Ferchaud",
					"latitude": 47.831998,
					"longitude": -1.313288,
					"stop_id": 8703928,
					"distance": 339
				}
			]
		},
		"FRH0335093M035725": {
			"bathingWaterIdentifier": "FRH0335093M035725",
			"nameText": "L'ECLUSE",
			"quality2023": "2 - Good",
			"bwProfileUrl": "http://baignades.sante.gouv.fr/baignades/profil.do?idSite=000843&amp;codeDept=035",
			"distance": 3.8824518741962588,
			"latitude": 48.63625,
			"longitude": -2.05453,
			"stops": [
				{
					"stop_name": "Dinard Office du Tourisme",
					"latitude": 48.634573,
					"longitude": -2.054835,
					"stop_id": 8703216,
					"distance": 881
				}
			]
		}
	},
	"france_217": {
		"FRK1343136D043110": {
			"bathingWaterIdentifier": "FRK1343136D043110",
			"nameText": "CAP-FERRET PHARE",
			"quality2023": "1 - Excellent",
			"bwProfileUrl": "http://baignades.sante.gouv.fr/baignades/profil.do?idSite=002066&amp;codeDept=033",
			"distance": 6.4157258819289899,
			"latitude": 44.64708,
			"longitude": -1.24478,
			"stops": [
				{
					"stop_name": "Monistrol d'Allier",
					"latitude": 44.96967,
					"longitude": 3.650034,
					"stop_id": 8704011,
					"distance": 211
				}
			]
		},
		"FRJ1566048M066020": {
			"bathingWaterIdentifier": "FRJ1566048M066020",
			"nameText": "CAP-FERRET PHARE",
			"quality2023": "1 - Excellent",
			"bwProfileUrl": "http://baignades.sante.gouv.fr/baignades/profil.do?idSite=002066&amp;codeDept=033",
			"distance": 6.4157258819289899,
			"latitude": 44.64708,
			"longitude": -1.24478,
			"stops": [
				{
					"stop_name": "Cerbère",
					"latitude": 42.441661,
					"longitude": 3.163187,
					"stop_id": 8700147,
					"distance": 235
				}
			]
		},
		"FRK2326183D026255": {
			"bathingWaterIdentifier": "FRK2326183D026255",
			"nameText": "CAP-FERRET PHARE",
			"quality2023": "1 - Excellent",
			"bwProfileUrl": "http://baignades.sante.gouv.fr/baignades/profil.do?idSite=002066&amp;codeDept=033",
			"distance": 6.4157258819289899,
			"latitude": 44.64708,
			"longitude": -1.24478,
			"stops": [
				{
					"stop_name": "Blacons",
					"latitude": 44.707176,
					"longitude": 5.090951,
					"stop_id": 8702482,
					"distance": 253
				}
			]
		},
		"FRI1564125M064096": {
			"bathingWaterIdentifier": "FRI1564125M064096",
			"nameText": "CAP-FERRET PHARE",
			"quality2023": "1 - Excellent",
			"bwProfileUrl": "http://baignades.sante.gouv.fr/baignades/profil.do?idSite=002066&amp;codeDept=033",
			"distance": 6.4157258819289899,
			"latitude": 44.64708,
			"longitude": -1.24478,
			"stops": [
				{
					"stop_name": "Guethary",
					"latitude": 43.425692,
					"longitude": -1.60862,
					"stop_id": 8701222,
					"distance": 259
				}
			]
		},
		"FRI1564249M064100": {
			"bathingWaterIdentifier": "FRI1564249M064100",
			"nameText": "CAP-FERRET PHARE",
			"quality2023": "1 - Excellent",
			"bwProfileUrl": "http://baignades.sante.gouv.fr/baignades/profil.do?idSite=002066&amp;codeDept=033",
			"distance": 6.4157258819289899,
			"latitude": 44.64708,
			"longitude": -1.24478,
			"stops": [
				{
					"stop_name": "Guethary",
					"latitude": 43.425692,
					"longitude": -1.60862,
					"stop_id": 8701222,
					"distance": 295
				}
			]
		},
		"FRK2207199D007004": {
			"bathingWaterIdentifier": "FRK2207199D007004",
			"nameText": "CAP-FERRET PHARE",
			"quality2023": "1 - Excellent",
			"bwProfileUrl": "http://baignades.sante.gouv.fr/baignades/profil.do?idSite=002066&amp;codeDept=033",
			"distance": 6.4157258819289899,
			"latitude": 44.64708,
			"longitude": -1.24478,
			"stops": [
				{
					"stop_name": "Rosieres Centre",
					"latitude": 44.482671,
					"longitude": 4.255655,
					"stop_id": 8705656,
					"distance": 324
				}
			]
		},
		"FRI3217094M017048": {
			"bathingWaterIdentifier": "FRI3217094M017048",
			"nameText": "CAP-FERRET PHARE",
			"quality2023": "1 - Excellent",
			"bwProfileUrl": "http://baignades.sante.gouv.fr/baignades/profil.do?idSite=002066&amp;codeDept=033",
			"distance": 6.4157258819289899,
			"latitude": 44.64708,
			"longitude": -1.24478,
			"stops": [
				{
					"stop_name": "Chatelaillon",
					"latitude": 46.078418,
					"longitude": -1.090967,
					"stop_id": 8702303,
					"distance": 327
				}
			]
		},
		"FRJ2882088D082380": {
			"bathingWaterIdentifier": "FRJ2882088D082380",
			"nameText": "CAP-FERRET PHARE",
			"quality2023": "1 - Excellent",
			"bwProfileUrl": "http://baignades.sante.gouv.fr/baignades/profil.do?idSite=002066&amp;codeDept=033",
			"distance": 6.4157258819289899,
			"latitude": 44.64708,
			"longitude": -1.24478,
			"stops": [
				{
					"stop_name": "Laguepie",
					"latitude": 44.145593,
					"longitude": 1.968826,
					"stop_id": 8703629,
					"distance": 340
				}
			]
		},
		"FRK1343012D043133": {
			"bathingWaterIdentifier": "FRK1343012D043133",
			"nameText": "CAP-FERRET PHARE",
			"quality2023": "1 - Excellent",
			"bwProfileUrl": "http://baignades.sante.gouv.fr/baignades/profil.do?idSite=002066&amp;codeDept=033",
			"distance": 6.4157258819289899,
			"latitude": 44.64708,
			"longitude": -1.24478,
			"stops": [
				{
					"stop_name": "Aurec",
					"latitude": 45.371084,
					"longitude": 4.198574,
					"stop_id": 8702722,
					"distance": 343
				}
			]
		},
		"FRJ2882088D082510": {
			"bathingWaterIdentifier": "FRJ2882088D082510",
			"nameText": "CAP-FERRET PHARE",
			"quality2023": "1 - Excellent",
			"bwProfileUrl": "http://baignades.sante.gouv.fr/baignades/profil.do?idSite=002066&amp;codeDept=033",
			"distance": 6.4157258819289899,
			"latitude": 44.64708,
			"longitude": -1.24478,
			"stops": [
				{
					"stop_name": "Laguepie",
					"latitude": 44.145593,
					"longitude": 1.968826,
					"stop_id": 8703629,
					"distance": 356
				}
			]
		},
		"FRK2101143D001620": {
			"bathingWaterIdentifier": "FRK2101143D001620",
			"nameText": "CAP-FERRET PHARE",
			"quality2023": "1 - Excellent",
			"bwProfileUrl": "http://baignades.sante.gouv.fr/baignades/profil.do?idSite=002066&amp;codeDept=033",
			"distance": 6.4157258819289899,
			"latitude": 44.64708,
			"longitude": -1.24478,
			"stops": [
				{
					"stop_name": "Divonne-les-Bains(F), piscine",
					"latitude": 46.353659,
					"longitude": 6.144235,
					"stop_id": 8595241,
					"distance": 402
				}
			]
		},
		"FRJ2212002D012064": {
			"bathingWaterIdentifier": "FRJ2212002D012064",
			"nameText": "CAP-FERRET PHARE",
			"quality2023": "1 - Excellent",
			"bwProfileUrl": "http://baignades.sante.gouv.fr/baignades/profil.do?idSite=002066&amp;codeDept=033",
			"distance": 6.4157258819289899,
			"latitude": 44.64708,
			"longitude": -1.24478,
			"stops": [
				{
					"stop_name": "Aguessac",
					"latitude": 44.149952999999999,
					"longitude": 3.098591,
					"stop_id": 8702623,
					"distance": 413
				}
			]
		},
		"FRK2207306D007789": {
			"bathingWaterIdentifier": "FRK2207306D007789",
			"nameText": "CAP-FERRET PHARE",
			"quality2023": "1 - Excellent",
			"bwProfileUrl": "http://baignades.sante.gouv.fr/baignades/profil.do?idSite=002066&amp;codeDept=033",
			"distance": 6.4157258819289899,
			"latitude": 44.64708,
			"longitude": -1.24478,
			"stops": [
				{
					"stop_name": "Sampzon le Pont",
					"latitude": 44.429473,
					"longitude": 4.357943,
					"stop_id": 8769396,
					"distance": 423
				}
			]
		},
		"FRI3116090D016025": {
			"bathingWaterIdentifier": "FRI3116090D016025",
			"nameText": "CAP-FERRET PHARE",
			"quality2023": "1 - Excellent",
			"bwProfileUrl": "http://baignades.sante.gouv.fr/baignades/profil.do?idSite=002066&amp;codeDept=033",
			"distance": 6.4157258819289899,
			"latitude": 44.64708,
			"longitude": -1.24478,
			"stops": [
				{
					"stop_name": "Chateauneuf/Charente",
					"latitude": 45.599904,
					"longitude": -0.050178,
					"stop_id": 8702336,
					"distance": 446
				}
			]
		},
		"FRJ1566016M066050": {
			"bathingWaterIdentifier": "FRJ1566016M066050",
			"nameText": "CAP-FERRET PHARE",
			"quality2023": "1 - Excellent",
			"bwProfileUrl": "http://baignades.sante.gouv.fr/baignades/profil.do?idSite=002066&amp;codeDept=033",
			"distance": 6.4157258819289899,
			"latitude": 44.64708,
			"longitude": -1.24478,
			"stops": [
				{
					"stop_name": "Banyuls-sur-Mer",
					"latitude": 42.482948,
					"longitude": 3.124839,
					"stop_id": 8700485,
					"distance": 472
				}
			]
		},
		"FRK2101269D001661": {
			"bathingWaterIdentifier": "FRK2101269D001661",
			"nameText": "CAP-FERRET PHARE",
			"quality2023": "1 - Excellent",
			"bwProfileUrl": "http://baignades.sante.gouv.fr/baignades/profil.do?idSite=002066&amp;codeDept=033",
			"distance": 6.4157258819289899,
			"latitude": 44.64708,
			"longitude": -1.24478,
			"stops": [
				{
					"stop_name": "Nantua Mediatheque",
					"latitude": 46.152309,
					"longitude": 5.602446,
					"stop_id": 8704085,
					"distance": 483
				}
			]
		},
		"FRJ2781220D081022": {
			"bathingWaterIdentifier": "FRJ2781220D081022",
			"nameText": "CAP-FERRET PHARE",
			"quality2023": "1 - Excellent",
			"bwProfileUrl": "http://baignades.sante.gouv.fr/baignades/profil.do?idSite=002066&amp;codeDept=033",
			"distance": 6.4157258819289899,
			"latitude": 44.64708,
			"longitude": -1.24478,
			"stops": [
				{
					"stop_name": "Rabastens Couffouleu",
					"latitude": 43.819447,
					"longitude": 1.730397,
					"stop_id": 8704339,
					"distance": 494
				}
			]
		},
		"FRJ1566230D066170": {
			"bathingWaterIdentifier": "FRJ1566230D066170",
			"nameText": "CAP-FERRET PHARE",
			"quality2023": "1 - Excellent",
			"bwProfileUrl": "http://baignades.sante.gouv.fr/baignades/profil.do?idSite=002066&amp;codeDept=033",
			"distance": 6.4157258819289899,
			"latitude": 44.64708,
			"longitude": -1.24478,
			"stops": [
				{
					"stop_name": "Vinca",
					"latitude": 42.648044,
					"longitude": 2.528117,
					"stop_id": 8704883,
					"distance": 518
				}
			]
		},
		"FRI1564483M064130": {
			"bathingWaterIdentifier": "FRI1564483M064130",
			"nameText": "CAP-FERRET PHARE",
			"quality2023": "1 - Excellent",
			"bwProfileUrl": "http://baignades.sante.gouv.fr/baignades/profil.do?idSite=002066&amp;codeDept=033",
			"distance": 6.4157258819289899,
			"latitude": 44.64708,
			"longitude": -1.24478,
			"stops": [
				{
					"stop_name": "St-Jean-de-Luz-Ciboure",
					"latitude": 43.385825,
					"longitude": -1.661108,
					"stop_id": 8700109,
					"distance": 541
				}
			]
		},
		"FRJ1566016M066060": {
			"bathingWaterIdentifier": "FRJ1566016M066060",
			"nameText": "CAP-FERRET PHARE",
			"quality2023": "1 - Excellent",
			"bwProfileUrl": "http://baignades.sante.gouv.fr/baignades/profil.do?idSite=002066&amp;codeDept=033",
			"distance": 6.4157258819289899,
			"latitude": 44.64708,
			"longitude": -1.24478,
			"stops": [
				{
					"stop_name": "Banyuls-sur-Mer",
					"latitude": 42.482948,
					"longitude": 3.124839,
					"stop_id": 8700485,
					"distance": 568
				}
			]
		},
		"FRI3217094M017047": {
			"bathingWaterIdentifier": "FRI3217094M017047",
			"nameText": "CAP-FERRET PHARE",
			"quality2023": "1 - Excellent",
			"bwProfileUrl": "http://baignades.sante.gouv.fr/baignades/profil.do?idSite=002066&amp;codeDept=033",
			"distance": 6.4157258819289899,
			"latitude": 44.64708,
			"longitude": -1.24478,
			"stops": [
				{
					"stop_name": "Chatelaillon",
					"latitude": 46.078418,
					"longitude": -1.090967,
					"stop_id": 8702303,
					"distance": 582
				}
			]
		},
		"FRJ1230028D030691": {
			"bathingWaterIdentifier": "FRJ1230028D030691",
			"nameText": "CAP-FERRET PHARE",
			"quality2023": "1 - Excellent",
			"bwProfileUrl": "http://baignades.sante.gouv.fr/baignades/profil.do?idSite=002066&amp;codeDept=033",
			"distance": 6.4157258819289899,
			"latitude": 44.64708,
			"longitude": -1.24478,
			"stops": [
				{
					"stop_name": "Bagnols sur Cèze",
					"latitude": 44.161576,
					"longitude": 4.626946,
					"stop_id": 8776457,
					"distance": 587
				}
			]
		},
		"FRJ2331390D031001": {
			"bathingWaterIdentifier": "FRJ2331390D031001",
			"nameText": "CAP-FERRET PHARE",
			"quality2023": "1 - Excellent",
			"bwProfileUrl": "http://baignades.sante.gouv.fr/baignades/profil.do?idSite=002066&amp;codeDept=033",
			"distance": 6.4157258819289899,
			"latitude": 44.64708,
			"longitude": -1.24478,
			"stops": [
				{
					"stop_name": "Montrejeau-Gourdan-Polignan",
					"latitude": 43.077962,
					"longitude": 0.573431,
					"stop_id": 8700103,
					"distance": 630
				}
			]
		},
		"FRJ1566230D066180": {
			"bathingWaterIdentifier": "FRJ1566230D066180",
			"nameText": "CAP-FERRET PHARE",
			"quality2023": "1 - Excellent",
			"bwProfileUrl": "http://baignades.sante.gouv.fr/baignades/profil.do?idSite=002066&amp;codeDept=033",
			"distance": 6.4157258819289899,
			"latitude": 44.64708,
			"longitude": -1.24478,
			"stops": [
				{
					"stop_name": "Vinca",
					"latitude": 42.648044,
					"longitude": 2.528117,
					"stop_id": 8704883,
					"distance": 631
				}
			]
		},
		"FRK2207201D007100": {
			"bathingWaterIdentifier": "FRK2207201D007100",
			"nameText": "CAP-FERRET PHARE",
			"quality2023": "1 - Excellent",
			"bwProfileUrl": "http://baignades.sante.gouv.fr/baignades/profil.do?idSite=002066&amp;codeDept=033",
			"distance": 6.4157258819289899,
			"latitude": 44.64708,
			"longitude": -1.24478,
			"stops": [
				{
					"stop_name": "Ruoms, Place de la Gare (Déviation)",
					"latitude": 44.451766,
					"longitude": 4.343408,
					"stop_id": 8704399,
					"distance": 631
				}
			]
		},
		"FRJ1566053M066150": {
			"bathingWaterIdentifier": "FRJ1566053M066150",
			"nameText": "CAP-FERRET PHARE",
			"quality2023": "1 - Excellent",
			"bwProfileUrl": "http://baignades.sante.gouv.fr/baignades/profil.do?idSite=002066&amp;codeDept=033",
			"distance": 6.4157258819289899,
			"latitude": 44.64708,
			"longitude": -1.24478,
			"stops": [
				{
					"stop_name": "Collioure",
					"latitude": 42.526906,
					"longitude": 3.078077,
					"stop_id": 8700486,
					"distance": 632
				}
			]
		},
		"FRK1463072D063065": {
			"bathingWaterIdentifier": "FRK1463072D063065",
			"nameText": "CAP-FERRET PHARE",
			"quality2023": "1 - Excellent",
			"bwProfileUrl": "http://baignades.sante.gouv.fr/baignades/profil.do?idSite=002066&amp;codeDept=033",
			"distance": 6.4157258819289899,
			"latitude": 44.64708,
			"longitude": -1.24478,
			"stops": [
				{
					"stop_name": "Chabreloche Pont Bascule",
					"latitude": 45.87786,
					"longitude": 3.696931,
					"stop_id": 8703010,
					"distance": 642
				}
			]
		},
		"FRI1564260M064145": {
			"bathingWaterIdentifier": "FRI1564260M064145",
			"nameText": "CAP-FERRET PHARE",
			"quality2023": "1 - Excellent",
			"bwProfileUrl": "http://baignades.sante.gouv.fr/baignades/profil.do?idSite=002066&amp;codeDept=033",
			"distance": 6.4157258819289899,
			"latitude": 44.64708,
			"longitude": -1.24478,
			"stops": [
				{
					"stop_name": "Hendaye-Plage",
					"latitude": 43.369995,
					"longitude": -1.764645,
					"stop_id": 8701248,
					"distance": 671
				}
			]
		},
		"FRJ1230239D030410": {
			"bathingWaterIdentifier": "FRJ1230239D030410",
			"nameText": "CAP-FERRET PHARE",
			"quality2023": "1 - Excellent",
			"bwProfileUrl": "http://baignades.sante.gouv.fr/baignades/profil.do?idSite=002066&amp;codeDept=033",
			"distance": 6.4157258819289899,
			"latitude": 44.64708,
			"longitude": -1.24478,
			"stops": [
				{
					"stop_name": "La Levade",
					"latitude": 44.238209,
					"longitude": 3.991462,
					"stop_id": 8703584,
					"distance": 685
				}
			]
		},
		"FRK2207061D007092": {
			"bathingWaterIdentifier": "FRK2207061D007092",
			"nameText": "CAP-FERRET PHARE",
			"quality2023": "1 - Excellent",
			"bwProfileUrl": "http://baignades.sante.gouv.fr/baignades/profil.do?idSite=002066&amp;codeDept=033",
			"distance": 6.4157258819289899,
			"latitude": 44.64708,
			"longitude": -1.24478,
			"stops": [
				{
					"stop_name": "Pradons Centre",
					"latitude": 44.474275,
					"longitude": 4.358645,
					"stop_id": 8705258,
					"distance": 686
				}
			]
		},
		"FRI1564125M064092": {
			"bathingWaterIdentifier": "FRI1564125M064092",
			"nameText": "CAP-FERRET PHARE",
			"quality2023": "1 - Excellent",
			"bwProfileUrl": "http://baignades.sante.gouv.fr/baignades/profil.do?idSite=002066&amp;codeDept=033",
			"distance": 6.4157258819289899,
			"latitude": 44.64708,
			"longitude": -1.24478,
			"stops": [
				{
					"stop_name": "Guethary",
					"latitude": 43.425692,
					"longitude": -1.60862,
					"stop_id": 8701222,
					"distance": 705
				}
			]
		},
		"FRI1233011M033090": {
			"bathingWaterIdentifier": "FRI1233011M033090",
			"nameText": "PEREIRE",
			"quality2023": "1 - Excellent",
			"bwProfileUrl": "http://baignades.sante.gouv.fr/baignades/profil.do?idSite=002047&amp;codeDept=033",
			"distance": 2.455379062953247,
			"latitude": 44.65346,
			"longitude": -1.1955,
			"stops": [
				{
					"stop_name": "Ares Centre",
					"latitude": 44.766388,
					"longitude": -1.138888,
					"stop_id": 8771095,
					"distance": 708
				}
			]
		},
		"FRK2207247D007791": {
			"bathingWaterIdentifier": "FRK2207247D007791",
			"nameText": "CAP-FERRET PHARE",
			"quality2023": "1 - Excellent",
			"bwProfileUrl": "http://baignades.sante.gouv.fr/baignades/profil.do?idSite=002066&amp;codeDept=033",
			"distance": 6.4157258819289899,
			"latitude": 44.64708,
			"longitude": -1.24478,
			"stops": [
				{
					"stop_name": "St Jean le Centenier Centre",
					"latitude": 44.589526,
					"longitude": 4.536487,
					"stop_id": 8705223,
					"distance": 716
				}
			]
		},
		"FRJ2781078D081003": {
			"bathingWaterIdentifier": "FRJ2781078D081003",
			"nameText": "CAP-FERRET PHARE",
			"quality2023": "1 - Excellent",
			"bwProfileUrl": "http://baignades.sante.gouv.fr/baignades/profil.do?idSite=002066&amp;codeDept=033",
			"distance": 6.4157258819289899,
			"latitude": 44.64708,
			"longitude": -1.24478,
			"stops": [
				{
					"stop_name": "Damiatte St Paul",
					"latitude": 43.656616,
					"longitude": 1.973357,
					"stop_id": 8703196,
					"distance": 724
				}
			]
		},
		"FRJ1566053M066140": {
			"bathingWaterIdentifier": "FRJ1566053M066140",
			"nameText": "CAP-FERRET PHARE",
			"quality2023": "1 - Excellent",
			"bwProfileUrl": "http://baignades.sante.gouv.fr/baignades/profil.do?idSite=002066&amp;codeDept=033",
			"distance": 6.4157258819289899,
			"latitude": 44.64708,
			"longitude": -1.24478,
			"stops": [
				{
					"stop_name": "Collioure",
					"latitude": 42.526906,
					"longitude": 3.078077,
					"stop_id": 8700486,
					"distance": 727
				}
			]
		},
		"FRK2326113D026268": {
			"bathingWaterIdentifier": "FRK2326113D026268",
			"nameText": "CAP-FERRET PHARE",
			"quality2023": "1 - Excellent",
			"bwProfileUrl": "http://baignades.sante.gouv.fr/baignades/profil.do?idSite=002066&amp;codeDept=033",
			"distance": 6.4157258819289899,
			"latitude": 44.64708,
			"longitude": -1.24478,
			"stops": [
				{
					"stop_name": "Die",
					"latitude": 44.758163,
					"longitude": 5.363153,
					"stop_id": 8702522,
					"distance": 741
				}
			]
		},
		"FRK1463354D063180": {
			"bathingWaterIdentifier": "FRK1463354D063180",
			"nameText": "CAP-FERRET PHARE",
			"quality2023": "1 - Excellent",
			"bwProfileUrl": "http://baignades.sante.gouv.fr/baignades/profil.do?idSite=002066&amp;codeDept=033",
			"distance": 6.4157258819289899,
			"latitude": 44.64708,
			"longitude": -1.24478,
			"stops": [
				{
					"stop_name": "St. Gervais Chateauneuf LPA",
					"latitude": 46.030865,
					"longitude": 2.811925,
					"stop_id": 8768059,
					"distance": 743
				}
			]
		},
		"FRJ1230051D030407": {
			"bathingWaterIdentifier": "FRJ1230051D030407",
			"nameText": "CAP-FERRET PHARE",
			"quality2023": "1 - Excellent",
			"bwProfileUrl": "http://baignades.sante.gouv.fr/baignades/profil.do?idSite=002066&amp;codeDept=033",
			"distance": 6.4157258819289899,
			"latitude": 44.64708,
			"longitude": -1.24478,
			"stops": [
				{
					"stop_name": "La Levade",
					"latitude": 44.238209,
					"longitude": 3.991462,
					"stop_id": 8703584,
					"distance": 760
				}
			]
		},
		"FRK2101269D001660": {
			"bathingWaterIdentifier": "FRK2101269D001660",
			"nameText": "CAP-FERRET PHARE",
			"quality2023": "1 - Excellent",
			"bwProfileUrl": "http://baignades.sante.gouv.fr/baignades/profil.do?idSite=002066&amp;codeDept=033",
			"distance": 6.4157258819289899,
			"latitude": 44.64708,
			"longitude": -1.24478,
			"stops": [
				{
					"stop_name": "Nantua Esplanade",
					"latitude": 46.156264,
					"longitude": 5.60383,
					"stop_id": 8772846,
					"distance": 762
				}
			]
		},
		"FRJ1566053M066160": {
			"bathingWaterIdentifier": "FRJ1566053M066160",
			"nameText": "CAP-FERRET PHARE",
			"quality2023": "1 - Excellent",
			"bwProfileUrl": "http://baignades.sante.gouv.fr/baignades/profil.do?idSite=002066&amp;codeDept=033",
			"distance": 6.4157258819289899,
			"latitude": 44.64708,
			"longitude": -1.24478,
			"stops": [
				{
					"stop_name": "Collioure",
					"latitude": 42.526906,
					"longitude": 3.078077,
					"stop_id": 8700486,
					"distance": 765
				}
			]
		},
		"FRJ1230080D030610": {
			"bathingWaterIdentifier": "FRJ1230080D030610",
			"nameText": "CAP-FERRET PHARE",
			"quality2023": "1 - Excellent",
			"bwProfileUrl": "http://baignades.sante.gouv.fr/baignades/profil.do?idSite=002066&amp;codeDept=033",
			"distance": 6.4157258819289899,
			"latitude": 44.64708,
			"longitude": -1.24478,
			"stops": [
				{
					"stop_name": "Chamborigaud",
					"latitude": 44.300244,
					"longitude": 3.979336,
					"stop_id": 8703020,
					"distance": 766
				}
			]
		},
		"FRJ1566016M066070": {
			"bathingWaterIdentifier": "FRJ1566016M066070",
			"nameText": "CAP-FERRET PHARE",
			"quality2023": "1 - Excellent",
			"bwProfileUrl": "http://baignades.sante.gouv.fr/baignades/profil.do?idSite=002066&amp;codeDept=033",
			"distance": 6.4157258819289899,
			"latitude": 44.64708,
			"longitude": -1.24478,
			"stops": [
				{
					"stop_name": "Banyuls-sur-Mer",
					"latitude": 42.482948,
					"longitude": 3.124839,
					"stop_id": 8700485,
					"distance": 767
				}
			]
		},
		"FRI3217286M017358": {
			"bathingWaterIdentifier": "FRI3217286M017358",
			"nameText": "CAP-FERRET PHARE",
			"quality2023": "1 - Excellent",
			"bwProfileUrl": "http://baignades.sante.gouv.fr/baignades/profil.do?idSite=002066&amp;codeDept=033",
			"distance": 6.4157258819289899,
			"latitude": 44.64708,
			"longitude": -1.24478,
			"stops": [
				{
					"stop_name": "Ile de Re Les Portes",
					"latitude": 46.25084,
					"longitude": -1.498079,
					"stop_id": 8704536,
					"distance": 772
				}
			]
		},
		"FRJ1566008M066180": {
			"bathingWaterIdentifier": "FRJ1566008M066180",
			"nameText": "CAP-FERRET PHARE",
			"quality2023": "1 - Excellent",
			"bwProfileUrl": "http://baignades.sante.gouv.fr/baignades/profil.do?idSite=002066&amp;codeDept=033",
			"distance": 6.4157258819289899,
			"latitude": 44.64708,
			"longitude": -1.24478,
			"stops": [
				{
					"stop_name": "Collioure",
					"latitude": 42.526906,
					"longitude": 3.078077,
					"stop_id": 8700486,
					"distance": 797
				}
			]
		},
		"FRJ1230133M030010": {
			"bathingWaterIdentifier": "FRJ1230133M030010",
			"nameText": "CAP-FERRET PHARE",
			"quality2023": "1 - Excellent",
			"bwProfileUrl": "http://baignades.sante.gouv.fr/baignades/profil.do?idSite=002066&amp;codeDept=033",
			"distance": 6.4157258819289899,
			"latitude": 44.64708,
			"longitude": -1.24478,
			"stops": [
				{
					"stop_name": "Le Grau-du-Roi",
					"latitude": 43.537033,
					"longitude": 4.14044,
					"stop_id": 8703707,
					"distance": 819
				}
			]
		},
		"FRJ1111015D011097": {
			"bathingWaterIdentifier": "FRJ1111015D011097",
			"nameText": "CAP-FERRET PHARE",
			"quality2023": "1 - Excellent",
			"bwProfileUrl": "http://baignades.sante.gouv.fr/baignades/profil.do?idSite=002066&amp;codeDept=033",
			"distance": 6.4157258819289899,
			"latitude": 44.64708,
			"longitude": -1.24478,
			"stops": [
				{
					"stop_name": "Givet",
					"latitude": 50.140284,
					"longitude": 4.817832,
					"stop_id": 8700522,
					"distance": 822
				}
			]
		},
		"FRI3217207M017343": {
			"bathingWaterIdentifier": "FRI3217207M017343",
			"nameText": "CAP-FERRET PHARE",
			"quality2023": "1 - Excellent",
			"bwProfileUrl": "http://baignades.sante.gouv.fr/baignades/profil.do?idSite=002066&amp;codeDept=033",
			"distance": 6.4157258819289899,
			"latitude": 44.64708,
			"longitude": -1.24478,
			"stops": [
				{
					"stop_name": "Ile de Re Loix",
					"latitude": 46.22389,
					"longitude": -1.440279,
					"stop_id": 8769892,
					"distance": 831
				}
			]
		},
		"FRK2101304D001130": {
			"bathingWaterIdentifier": "FRK2101304D001130",
			"nameText": "CAP-FERRET PHARE",
			"quality2023": "1 - Excellent",
			"bwProfileUrl": "http://baignades.sante.gouv.fr/baignades/profil.do?idSite=002066&amp;codeDept=033",
			"distance": 6.4157258819289899,
			"latitude": 44.64708,
			"longitude": -1.24478,
			"stops": [
				{
					"stop_name": "Pont-d'Ain",
					"latitude": 46.054587,
					"longitude": 5.333866,
					"stop_id": 8702414,
					"distance": 833
				}
			]
		},
		"FRK2326198D026970": {
			"bathingWaterIdentifier": "FRK2326198D026970",
			"nameText": "CAP-FERRET PHARE",
			"quality2023": "1 - Excellent",
			"bwProfileUrl": "http://baignades.sante.gouv.fr/baignades/profil.do?idSite=002066&amp;codeDept=033",
			"distance": 6.4157258819289899,
			"latitude": 44.64708,
			"longitude": -1.24478,
			"stops": [
				{
					"stop_name": "Le Teil",
					"latitude": 44.55267,
					"longitude": 4.68605,
					"stop_id": 8703381,
					"distance": 835
				}
			]
		},
		"FRI1564260M064150": {
			"bathingWaterIdentifier": "FRI1564260M064150",
			"nameText": "CAP-FERRET PHARE",
			"quality2023": "1 - Excellent",
			"bwProfileUrl": "http://baignades.sante.gouv.fr/baignades/profil.do?idSite=002066&amp;codeDept=033",
			"distance": 6.4157258819289899,
			"latitude": 44.64708,
			"longitude": -1.24478,
			"stops": [
				{
					"stop_name": "Hendaye-Plage",
					"latitude": 43.369995,
					"longitude": -1.764645,
					"stop_id": 8701248,
					"distance": 843
				}
			]
		},
		"FRI2387027D087028": {
			"bathingWaterIdentifier": "FRI2387027D087028",
			"nameText": "CAP-FERRET PHARE",
			"quality2023": "1 - Excellent",
			"bwProfileUrl": "http://baignades.sante.gouv.fr/baignades/profil.do?idSite=002066&amp;codeDept=033",
			"distance": 6.4157258819289899,
			"latitude": 44.64708,
			"longitude": -1.24478,
			"stops": [
				{
					"stop_name": "Bussiere Galant",
					"latitude": 45.60768,
					"longitude": 1.026245,
					"stop_id": 8702941,
					"distance": 844
				}
			]
		},
		"FRK2207110D007220": {
			"bathingWaterIdentifier": "FRK2207110D007220",
			"nameText": "CAP-FERRET PHARE",
			"quality2023": "1 - Excellent",
			"bwProfileUrl": "http://baignades.sante.gouv.fr/baignades/profil.do?idSite=002066&amp;codeDept=033",
			"distance": 6.4157258819289899,
			"latitude": 44.64708,
			"longitude": -1.24478,
			"stops": [
				{
					"stop_name": "Joyeuse, Office du Tourisme",
					"latitude": 44.479749,
					"longitude": 4.242846,
					"stop_id": 8703513,
					"distance": 855
				}
			]
		},
		"FRK2326289D026245": {
			"bathingWaterIdentifier": "FRK2326289D026245",
			"nameText": "CAP-FERRET PHARE",
			"quality2023": "1 - Excellent",
			"bwProfileUrl": "http://baignades.sante.gouv.fr/baignades/profil.do?idSite=002066&amp;codeDept=033",
			"distance": 6.4157258819289899,
			"latitude": 44.64708,
			"longitude": -1.24478,
			"stops": [
				{
					"stop_name": "Saillans Pont Algoud",
					"latitude": 44.694448,
					"longitude": 5.193608,
					"stop_id": 8769865,
					"distance": 858
				}
			]
		},
		"FRJ1230007D030420": {
			"bathingWaterIdentifier": "FRJ1230007D030420",
			"nameText": "CAP-FERRET PHARE",
			"quality2023": "1 - Excellent",
			"bwProfileUrl": "http://baignades.sante.gouv.fr/baignades/profil.do?idSite=002066&amp;codeDept=033",
			"distance": 6.4157258819289899,
			"latitude": 44.64708,
			"longitude": -1.24478,
			"stops": [
				{
					"stop_name": "Ales",
					"latitude": 44.127965,
					"longitude": 4.084977,
					"stop_id": 8700126,
					"distance": 859
				}
			]
		},
		"FRI1564483M064125": {
			"bathingWaterIdentifier": "FRI1564483M064125",
			"nameText": "CAP-FERRET PHARE",
			"quality2023": "1 - Excellent",
			"bwProfileUrl": "http://baignades.sante.gouv.fr/baignades/profil.do?idSite=002066&amp;codeDept=033",
			"distance": 6.4157258819289899,
			"latitude": 44.64708,
			"longitude": -1.24478,
			"stops": [
				{
					"stop_name": "St-Jean-de-Luz-Ciboure",
					"latitude": 43.385825,
					"longitude": -1.661108,
					"stop_id": 8700109,
					"distance": 864
				}
			]
		},
		"FRK2207201D007123": {
			"bathingWaterIdentifier": "FRK2207201D007123",
			"nameText": "CAP-FERRET PHARE",
			"quality2023": "1 - Excellent",
			"bwProfileUrl": "http://baignades.sante.gouv.fr/baignades/profil.do?idSite=002066&amp;codeDept=033",
			"distance": 6.4157258819289899,
			"latitude": 44.64708,
			"longitude": -1.24478,
			"stops": [
				{
					"stop_name": "Pradons Centre",
					"latitude": 44.474275,
					"longitude": 4.358645,
					"stop_id": 8705258,
					"distance": 885
				}
			]
		},
		"FRK1463187D063115": {
			"bathingWaterIdentifier": "FRK1463187D063115",
			"nameText": "CAP-FERRET PHARE",
			"quality2023": "1 - Excellent",
			"bwProfileUrl": "http://baignades.sante.gouv.fr/baignades/profil.do?idSite=002066&amp;codeDept=033",
			"distance": 6.4157258819289899,
			"latitude": 44.64708,
			"longitude": -1.24478,
			"stops": [
				{
					"stop_name": "Lapeyrouse",
					"latitude": 46.226497,
					"longitude": 2.893547,
					"stop_id": 8703650,
					"distance": 889
				}
			]
		},
		"FRK2326113D026219": {
			"bathingWaterIdentifier": "FRK2326113D026219",
			"nameText": "CAP-FERRET PHARE",
			"quality2023": "1 - Excellent",
			"bwProfileUrl": "http://baignades.sante.gouv.fr/baignades/profil.do?idSite=002066&amp;codeDept=033",
			"distance": 6.4157258819289899,
			"latitude": 44.64708,
			"longitude": -1.24478,
			"stops": [
				{
					"stop_name": "Die",
					"latitude": 44.758163,
					"longitude": 5.363153,
					"stop_id": 8702522,
					"distance": 912
				}
			]
		},
		"FRI1447031D047009": {
			"bathingWaterIdentifier": "FRI1447031D047009",
			"nameText": "CAP-FERRET PHARE",
			"quality2023": "1 - Excellent",
			"bwProfileUrl": "http://baignades.sante.gouv.fr/baignades/profil.do?idSite=002066&amp;codeDept=033",
			"distance": 6.4157258819289899,
			"latitude": 44.64708,
			"longitude": -1.24478,
			"stops": [
				{
					"stop_name": "Boe",
					"latitude": 44.161702,
					"longitude": 0.623303,
					"stop_id": 8702849,
					"distance": 928
				}
			]
		},
		"FRI3217306M017185": {
			"bathingWaterIdentifier": "FRI3217306M017185",
			"nameText": "CAP-FERRET PHARE",
			"quality2023": "1 - Excellent",
			"bwProfileUrl": "http://baignades.sante.gouv.fr/baignades/profil.do?idSite=002066&amp;codeDept=033",
			"distance": 6.4157258819289899,
			"latitude": 44.64708,
			"longitude": -1.24478,
			"stops": [
				{
					"stop_name": "Royan",
					"latitude": 45.625892,
					"longitude": -1.016231,
					"stop_id": 8702345,
					"distance": 928
				}
			]
		},
		"FRI1564249M064103": {
			"bathingWaterIdentifier": "FRI1564249M064103",
			"nameText": "CAP-FERRET PHARE",
			"quality2023": "1 - Excellent",
			"bwProfileUrl": "http://baignades.sante.gouv.fr/baignades/profil.do?idSite=002066&amp;codeDept=033",
			"distance": 6.4157258819289899,
			"latitude": 44.64708,
			"longitude": -1.24478,
			"stops": [
				{
					"stop_name": "Guethary",
					"latitude": 43.425692,
					"longitude": -1.60862,
					"stop_id": 8701222,
					"distance": 934
				}
			]
		},
		"FRI2119129D019120": {
			"bathingWaterIdentifier": "FRI2119129D019120",
			"nameText": "CAP-FERRET PHARE",
			"quality2023": "1 - Excellent",
			"bwProfileUrl": "http://baignades.sante.gouv.fr/baignades/profil.do?idSite=002066&amp;codeDept=033",
			"distance": 6.4157258819289899,
			"latitude": 44.64708,
			"longitude": -1.24478,
			"stops": [
				{
					"stop_name": "Masseret",
					"latitude": 45.536243,
					"longitude": 1.541659,
					"stop_id": 8701613,
					"distance": 947
				}
			]
		},
		"FRI3486139D086040": {
			"bathingWaterIdentifier": "FRI3486139D086040",
			"nameText": "CAP-FERRET PHARE",
			"quality2023": "1 - Excellent",
			"bwProfileUrl": "http://baignades.sante.gouv.fr/baignades/profil.do?idSite=002066&amp;codeDept=033",
			"distance": 6.4157258819289899,
			"latitude": 44.64708,
			"longitude": -1.24478,
			"stops": [
				{
					"stop_name": "Lusignan",
					"latitude": 46.435514,
					"longitude": 0.11632,
					"stop_id": 8701459,
					"distance": 964
				}
			]
		},
		"FRI3217360M017315": {
			"bathingWaterIdentifier": "FRI3217360M017315",
			"nameText": "CAP-FERRET PHARE",
			"quality2023": "1 - Excellent",
			"bwProfileUrl": "http://baignades.sante.gouv.fr/baignades/profil.do?idSite=002066&amp;codeDept=033",
			"distance": 6.4157258819289899,
			"latitude": 44.64708,
			"longitude": -1.24478,
			"stops": [
				{
					"stop_name": "Ile de Re Ste Marie",
					"latitude": 46.152273,
					"longitude": -1.312452,
					"stop_id": 8704896,
					"distance": 964
				}
			]
		},
		"FRK2101407D001685": {
			"bathingWaterIdentifier": "FRK2101407D001685",
			"nameText": "CAP-FERRET PHARE",
			"quality2023": "1 - Excellent",
			"bwProfileUrl": "http://baignades.sante.gouv.fr/baignades/profil.do?idSite=002066&amp;codeDept=033",
			"distance": 6.4157258819289899,
			"latitude": 44.64708,
			"longitude": -1.24478,
			"stops": [
				{
					"stop_name": "Seyssel, Petit Nice",
					"latitude": 45.957621,
					"longitude": 5.836624,
					"stop_id": 8786183,
					"distance": 966
				}
			]
		},
		"FRJ2212270D012111": {
			"bathingWaterIdentifier": "FRJ2212270D012111",
			"nameText": "CAP-FERRET PHARE",
			"quality2023": "1 - Excellent",
			"bwProfileUrl": "http://baignades.sante.gouv.fr/baignades/profil.do?idSite=002066&amp;codeDept=033",
			"distance": 6.4157258819289899,
			"latitude": 44.64708,
			"longitude": -1.24478,
			"stops": [
				{
					"stop_name": "Sévérac-le-Château",
					"latitude": 44.324649,
					"longitude": 3.056944,
					"stop_id": 8700420,
					"distance": 979
				}
			]
		}
	},
	"france_235": {
		"FRK2773085D073010": {
			"bathingWaterIdentifier": "FRK2773085D073010",
			"nameText": "PLAGE MUNICIPALE D'AIX LES BAINS AQUALAC",
			"quality2023": "1 - Excellent",
			"bwProfileUrl": "http://baignades.sante.gouv.fr/baignades/profil.do?idSite=003677&amp;codeDept=073",
			"distance": 1.3990178727841139,
			"latitude": 45.69137,
			"longitude": 5.89158,
			"stops": [
				{
					"stop_name": "Chindrieux",
					"latitude": 45.803294,
					"longitude": 5.846881,
					"stop_id": 8702397,
					"distance": 387
				}
			]
		}
	},
	"france_237": {
		"FRK2874119D074090": {
			"bathingWaterIdentifier": "FRK2874119D074090",
			"nameText": "EVIAN CENTRE NAUTIQUE",
			"quality2023": "1 - Excellent",
			"bwProfileUrl": "http://baignades.sante.gouv.fr/baignades/profil.do?idSite=003370&amp;codeDept=074",
			"distance": 8.407625648239732,
			"latitude": 46.40071,
			"longitude": 6.58119,
			"stops": [
				{
					"stop_name": "Évian-les-Bains, Jard.Japonais",
					"latitude": 46.39971,
					"longitude": 6.583664,
					"stop_id": 8785609,
					"distance": 219
				}
			]
		},
		"FRK2874013D074060": {
			"bathingWaterIdentifier": "FRK2874013D074060",
			"nameText": "ANTHY RECORTS - MUNICIPALE",
			"quality2023": "1 - Excellent",
			"bwProfileUrl": "http://baignades.sante.gouv.fr/baignades/profil.do?idSite=003367&amp;codeDept=074",
			"distance": 4.721716826361996,
			"latitude": 46.35976,
			"longitude": 6.42171,
			"stops": [
				{
					"stop_name": "Anthy-sur-Léman, Champ de L'Eau",
					"latitude": 46.361857,
					"longitude": 6.441391,
					"stop_id": 8785431,
					"distance": 230
				}
			]
		},
		"FRK2874013D074050": {
			"bathingWaterIdentifier": "FRK2874013D074050",
			"nameText": "ANTHY RECORTS - MUNICIPALE",
			"quality2023": "1 - Excellent",
			"bwProfileUrl": "http://baignades.sante.gouv.fr/baignades/profil.do?idSite=003367&amp;codeDept=074",
			"distance": 4.721716826361996,
			"latitude": 46.35976,
			"longitude": 6.42171,
			"stops": [
				{
					"stop_name": "Anthy-sur-Léman, Contamines",
					"latitude": 46.355663,
					"longitude": 6.421094,
					"stop_id": 8786437,
					"distance": 458
				}
			]
		},
		"FRK2874042D074610": {
			"bathingWaterIdentifier": "FRK2874042D074610",
			"nameText": "ANTHY RECORTS - MUNICIPALE",
			"quality2023": "1 - Excellent",
			"bwProfileUrl": "http://baignades.sante.gouv.fr/baignades/profil.do?idSite=003367&amp;codeDept=074",
			"distance": 4.721716826361996,
			"latitude": 46.35976,
			"longitude": 6.42171,
			"stops": [
				{
					"stop_name": "Bonneviille, Supermarché",
					"latitude": 46.073348,
					"longitude": 6.420563,
					"stop_id": 8786531,
					"distance": 584
				}
			]
		},
		"FRK2874121D074030": {
			"bathingWaterIdentifier": "FRK2874121D074030",
			"nameText": "EVIAN CENTRE NAUTIQUE",
			"quality2023": "1 - Excellent",
			"bwProfileUrl": "http://baignades.sante.gouv.fr/baignades/profil.do?idSite=003370&amp;codeDept=074",
			"distance": 8.407625648239732,
			"latitude": 46.40071,
			"longitude": 6.58119,
			"stops": [
				{
					"stop_name": "Excenevex, Chef Lieu",
					"latitude": 46.355322,
					"longitude": 6.35372,
					"stop_id": 8786178,
					"distance": 772
				}
			]
		},
		"FRK2874134D074600": {
			"bathingWaterIdentifier": "FRK2874134D074600",
			"nameText": "EVIAN CENTRE NAUTIQUE",
			"quality2023": "1 - Excellent",
			"bwProfileUrl": "http://baignades.sante.gouv.fr/baignades/profil.do?idSite=003370&amp;codeDept=074",
			"distance": 8.407625648239732,
			"latitude": 46.40071,
			"longitude": 6.58119,
			"stops": [
				{
					"stop_name": "Les Gets, Gare routière",
					"latitude": 46.159869,
					"longitude": 6.66872,
					"stop_id": 8785817,
					"distance": 826
				}
			]
		}
	},
	"france_238": {
		"FRK2874172D074130": {
			"bathingWaterIdentifier": "FRK2874172D074130",
			"nameText": "LUGRIN TOURRONDE",
			"quality2023": "1 - Excellent",
			"bwProfileUrl": "http://baignades.sante.gouv.fr/baignades/profil.do?idSite=004434&amp;codeDept=074",
			"distance": 5.73200098388995,
			"latitude": 46.40553,
			"longitude": 6.65153,
			"stops": [
				{
					"stop_name": "Maxilly/Léman, Neuvecelle M P",
					"latitude": 46.403791,
					"longitude": 6.621086,
					"stop_id": 8787014,
					"distance": 98
				}
			]
		},
		"FRK2874175D074092": {
			"bathingWaterIdentifier": "FRK2874175D074092",
			"nameText": "LUGRIN TOURRONDE",
			"quality2023": "1 - Excellent",
			"bwProfileUrl": "http://baignades.sante.gouv.fr/baignades/profil.do?idSite=004434&amp;codeDept=074",
			"distance": 5.73200098388995,
			"latitude": 46.40553,
			"longitude": 6.65153,
			"stops": [
				{
					"stop_name": "Meillerie, Locum",
					"latitude": 46.402542,
					"longitude": 6.755555,
					"stop_id": 8785107,
					"distance": 117
				}
			]
		},
		"FRK2874200D074140": {
			"bathingWaterIdentifier": "FRK2874200D074140",
			"nameText": "NEUVECELLE GRANDE RIVE",
			"quality2023": "1 - Excellent",
			"bwProfileUrl": "http://baignades.sante.gouv.fr/baignades/profil.do?idSite=004432&amp;codeDept=074",
			"distance": 2.945849557424606,
			"latitude": 46.40356,
			"longitude": 6.61513,
			"stops": [
				{
					"stop_name": "Évian-les-Bains, Grande Rive",
					"latitude": 46.403054,
					"longitude": 6.612699,
					"stop_id": 8786256,
					"distance": 194
				}
			]
		},
		"FRK2874175D074095": {
			"bathingWaterIdentifier": "FRK2874175D074095",
			"nameText": "LUGRIN TOURRONDE",
			"quality2023": "1 - Excellent",
			"bwProfileUrl": "http://baignades.sante.gouv.fr/baignades/profil.do?idSite=004434&amp;codeDept=074",
			"distance": 5.73200098388995,
			"latitude": 46.40553,
			"longitude": 6.65153,
			"stops": [
				{
					"stop_name": "Meillerie, Chef Lieu",
					"latitude": 46.407459,
					"longitude": 6.718565,
					"stop_id": 8786152,
					"distance": 206
				}
			]
		},
		"FRK2874119D074090": {
			"bathingWaterIdentifier": "FRK2874119D074090",
			"nameText": "EVIAN CENTRE NAUTIQUE",
			"quality2023": "1 - Excellent",
			"bwProfileUrl": "http://baignades.sante.gouv.fr/baignades/profil.do?idSite=003370&amp;codeDept=074",
			"distance": 0.424155034119561,
			"latitude": 46.40071,
			"longitude": 6.58119,
			"stops": [
				{
					"stop_name": "Évian-les-Bains, Jard.Japonais",
					"latitude": 46.39971,
					"longitude": 6.583664,
					"stop_id": 8785609,
					"distance": 219
				}
			]
		},
		"FRK2874154D074120": {
			"bathingWaterIdentifier": "FRK2874154D074120",
			"nameText": "LUGRIN TOURRONDE",
			"quality2023": "1 - Excellent",
			"bwProfileUrl": "http://baignades.sante.gouv.fr/baignades/profil.do?idSite=004434&amp;codeDept=074",
			"distance": 5.73200098388995,
			"latitude": 46.40553,
			"longitude": 6.65153,
			"stops": [
				{
					"stop_name": "Lugrin, Ancienne Gare",
					"latitude": 46.404421,
					"longitude": 6.664171,
					"stop_id": 8786240,
					"distance": 285
				}
			]
		},
		"FRK2874154D074110": {
			"bathingWaterIdentifier": "FRK2874154D074110",
			"nameText": "LUGRIN TOURRONDE",
			"quality2023": "1 - Excellent",
			"bwProfileUrl": "http://baignades.sante.gouv.fr/baignades/profil.do?idSite=004434&amp;codeDept=074",
			"distance": 5.73200098388995,
			"latitude": 46.40553,
			"longitude": 6.65153,
			"stops": [
				{
					"stop_name": "Lugrin, Port Martin",
					"latitude": 46.405733,
					"longitude": 6.647136,
					"stop_id": 8786238,
					"distance": 337
				}
			]
		},
		"FRK2874218D074085": {
			"bathingWaterIdentifier": "FRK2874218D074085",
			"nameText": "NEUVECELLE GRANDE RIVE",
			"quality2023": "1 - Excellent",
			"bwProfileUrl": "http://baignades.sante.gouv.fr/baignades/profil.do?idSite=004432&amp;codeDept=074",
			"distance": 2.945849557424606,
			"latitude": 46.40356,
			"longitude": 6.61513,
			"stops": [
				{
					"stop_name": "Publier, Amphion Stade",
					"latitude": 46.393813,
					"longitude": 6.53496,
					"stop_id": 8786865,
					"distance": 450
				}
			]
		},
		"FRK2874163D074041": {
			"bathingWaterIdentifier": "FRK2874163D074041",
			"nameText": "LUGRIN TOURRONDE",
			"quality2023": "1 - Excellent",
			"bwProfileUrl": "http://baignades.sante.gouv.fr/baignades/profil.do?idSite=004434&amp;codeDept=074",
			"distance": 5.73200098388995,
			"latitude": 46.40553,
			"longitude": 6.65153,
			"stops": [
				{
					"stop_name": "Anthy-sur-Léman, Port Sechex",
					"latitude": 46.350548,
					"longitude": 6.406747,
					"stop_id": 8785639,
					"distance": 458
				}
			]
		},
		"FRK2874172D074125": {
			"bathingWaterIdentifier": "FRK2874172D074125",
			"nameText": "LUGRIN TOURRONDE",
			"quality2023": "1 - Excellent",
			"bwProfileUrl": "http://baignades.sante.gouv.fr/baignades/profil.do?idSite=004434&amp;codeDept=074",
			"distance": 5.73200098388995,
			"latitude": 46.40553,
			"longitude": 6.65153,
			"stops": [
				{
					"stop_name": "Maxilly-sur-Léman, Petite Rive",
					"latitude": 46.40354,
					"longitude": 6.627558,
					"stop_id": 8785762,
					"distance": 479
				}
			]
		},
		"FRK2874208D074550": {
			"bathingWaterIdentifier": "FRK2874208D074550",
			"nameText": "NEUVECELLE GRANDE RIVE",
			"quality2023": "1 - Excellent",
			"bwProfileUrl": "http://baignades.sante.gouv.fr/baignades/profil.do?idSite=004432&amp;codeDept=074",
			"distance": 2.945849557424606,
			"latitude": 46.40356,
			"longitude": 6.61513,
			"stops": [
				{
					"stop_name": "Passy, La Charlotte",
					"latitude": 45.928604,
					"longitude": 6.655308,
					"stop_id": 8786576,
					"distance": 499
				}
			]
		},
		"FRK2874208D074540": {
			"bathingWaterIdentifier": "FRK2874208D074540",
			"nameText": "NEUVECELLE GRANDE RIVE",
			"quality2023": "1 - Excellent",
			"bwProfileUrl": "http://baignades.sante.gouv.fr/baignades/profil.do?idSite=004432&amp;codeDept=074",
			"distance": 2.945849557424606,
			"latitude": 46.40356,
			"longitude": 6.61513,
			"stops": [
				{
					"stop_name": "Passy, La Charlotte",
					"latitude": 45.928604,
					"longitude": 6.655308,
					"stop_id": 8786576,
					"distance": 705
				}
			]
		},
		"FRK2874121D074030": {
			"bathingWaterIdentifier": "FRK2874121D074030",
			"nameText": "EVIAN CENTRE NAUTIQUE",
			"quality2023": "1 - Excellent",
			"bwProfileUrl": "http://baignades.sante.gouv.fr/baignades/profil.do?idSite=003370&amp;codeDept=074",
			"distance": 0.424155034119561,
			"latitude": 46.40071,
			"longitude": 6.58119,
			"stops": [
				{
					"stop_name": "Excenevex, Chef Lieu",
					"latitude": 46.355322,
					"longitude": 6.35372,
					"stop_id": 8786178,
					"distance": 772
				}
			]
		},
		"FRK2874180D074015": {
			"bathingWaterIdentifier": "FRK2874180D074015",
			"nameText": "LUGRIN TOURRONDE",
			"quality2023": "1 - Excellent",
			"bwProfileUrl": "http://baignades.sante.gouv.fr/baignades/profil.do?idSite=004434&amp;codeDept=074",
			"distance": 5.73200098388995,
			"latitude": 46.40553,
			"longitude": 6.65153,
			"stops": [
				{
					"stop_name": "Messery, Chef Lieu",
					"latitude": 46.350953,
					"longitude": 6.29289,
					"stop_id": 8786184,
					"distance": 782
				}
			]
		},
		"FRK2874176D074250": {
			"bathingWaterIdentifier": "FRK2874176D074250",
			"nameText": "LUGRIN TOURRONDE",
			"quality2023": "1 - Excellent",
			"bwProfileUrl": "http://baignades.sante.gouv.fr/baignades/profil.do?idSite=004434&amp;codeDept=074",
			"distance": 5.73200098388995,
			"latitude": 46.40553,
			"longitude": 6.65153,
			"stops": [
				{
					"stop_name": "Veyrier-du-Lac, Buvette",
					"latitude": 45.870587,
					"longitude": 6.187662,
					"stop_id": 8786619,
					"distance": 814
				}
			]
		},
		"FRK2874134D074600": {
			"bathingWaterIdentifier": "FRK2874134D074600",
			"nameText": "EVIAN CENTRE NAUTIQUE",
			"quality2023": "1 - Excellent",
			"bwProfileUrl": "http://baignades.sante.gouv.fr/baignades/profil.do?idSite=003370&amp;codeDept=074",
			"distance": 0.424155034119561,
			"latitude": 46.40071,
			"longitude": 6.58119,
			"stops": [
				{
					"stop_name": "Les Gets, Gare routière",
					"latitude": 46.159869,
					"longitude": 6.66872,
					"stop_id": 8785817,
					"distance": 826
				}
			]
		}
	},
	"france_239": {
		"FRK2874299D074230": {
			"bathingWaterIdentifier": "FRK2874299D074230",
			"nameText": "TALLOIRES MUNICIPALE",
			"quality2023": "1 - Excellent",
			"bwProfileUrl": "http://baignades.sante.gouv.fr/baignades/profil.do?idSite=003355&amp;codeDept=074",
			"distance": 9.991284259839072,
			"latitude": 45.83779,
			"longitude": 6.21169,
			"stops": [
				{
					"stop_name": "Veyrier-du-Lac, Plage du Plant",
					"latitude": 45.887083,
					"longitude": 6.173827,
					"stop_id": 8785153,
					"distance": 119
				}
			]
		},
		"FRK2874281D074080": {
			"bathingWaterIdentifier": "FRK2874281D074080",
			"nameText": "TALLOIRES MUNICIPALE",
			"quality2023": "1 - Excellent",
			"bwProfileUrl": "http://baignades.sante.gouv.fr/baignades/profil.do?idSite=003355&amp;codeDept=074",
			"distance": 9.991284259839072,
			"latitude": 45.83779,
			"longitude": 6.21169,
			"stops": [
				{
					"stop_name": "Thonon-les-Bains, St Disdille",
					"latitude": 46.399342,
					"longitude": 6.503857,
					"stop_id": 8786136,
					"distance": 248
				}
			]
		},
		"FRK2874315D074025": {
			"bathingWaterIdentifier": "FRK2874315D074025",
			"nameText": "TALLOIRES MUNICIPALE",
			"quality2023": "1 - Excellent",
			"bwProfileUrl": "http://baignades.sante.gouv.fr/baignades/profil.do?idSite=003355&amp;codeDept=074",
			"distance": 9.991284259839072,
			"latitude": 45.83779,
			"longitude": 6.21169,
			"stops": [
				{
					"stop_name": "Yvoire, Pre Ponce",
					"latitude": 46.368221,
					"longitude": 6.325889,
					"stop_id": 8786138,
					"distance": 338
				}
			]
		},
		"FRL0306004M006215": {
			"bathingWaterIdentifier": "FRL0306004M006215",
			"nameText": "TALLOIRES MUNICIPALE",
			"quality2023": "1 - Excellent",
			"bwProfileUrl": "http://baignades.sante.gouv.fr/baignades/profil.do?idSite=003355&amp;codeDept=074",
			"distance": 9.991284259839072,
			"latitude": 45.83779,
			"longitude": 6.21169,
			"stops": [
				{
					"stop_name": "Juan-Les-Pins",
					"latitude": 43.571147,
					"longitude": 7.111879,
					"stop_id": 8700313,
					"distance": 394
				}
			]
		},
		"FRL0205052D005025": {
			"bathingWaterIdentifier": "FRL0205052D005025",
			"nameText": "TALLOIRES MUNICIPALE",
			"quality2023": "1 - Excellent",
			"bwProfileUrl": "http://baignades.sante.gouv.fr/baignades/profil.do?idSite=003355&amp;codeDept=074",
			"distance": 9.991284259839072,
			"latitude": 45.83779,
			"longitude": 6.21169,
			"stops": [
				{
					"stop_name": "Montdauphin-Guillestre",
					"latitude": 44.67459,
					"longitude": 6.615512,
					"stop_id": 8702549,
					"distance": 448
				}
			]
		},
		"FRL0306004M006210": {
			"bathingWaterIdentifier": "FRL0306004M006210",
			"nameText": "TALLOIRES MUNICIPALE",
			"quality2023": "1 - Excellent",
			"bwProfileUrl": "http://baignades.sante.gouv.fr/baignades/profil.do?idSite=003355&amp;codeDept=074",
			"distance": 9.991284259839072,
			"latitude": 45.83779,
			"longitude": 6.21169,
			"stops": [
				{
					"stop_name": "Juan-Les-Pins",
					"latitude": 43.571147,
					"longitude": 7.111879,
					"stop_id": 8700313,
					"distance": 504
				}
			]
		},
		"FRK2874299D074240": {
			"bathingWaterIdentifier": "FRK2874299D074240",
			"nameText": "TALLOIRES MUNICIPALE",
			"quality2023": "1 - Excellent",
			"bwProfileUrl": "http://baignades.sante.gouv.fr/baignades/profil.do?idSite=003355&amp;codeDept=074",
			"distance": 9.991284259839072,
			"latitude": 45.83779,
			"longitude": 6.21169,
			"stops": [
				{
					"stop_name": "Veyrier-du-Lac, Chef Lieu",
					"latitude": 45.883703,
					"longitude": 6.177459,
					"stop_id": 8786342,
					"distance": 529
				}
			]
		},
		"FRL0205052D005155": {
			"bathingWaterIdentifier": "FRL0205052D005155",
			"nameText": "TALLOIRES MUNICIPALE",
			"quality2023": "1 - Excellent",
			"bwProfileUrl": "http://baignades.sante.gouv.fr/baignades/profil.do?idSite=003355&amp;codeDept=074",
			"distance": 9.991284259839072,
			"latitude": 45.83779,
			"longitude": 6.21169,
			"stops": [
				{
					"stop_name": "Montdauphin-Guillestre",
					"latitude": 44.67459,
					"longitude": 6.615512,
					"stop_id": 8702549,
					"distance": 564
				}
			]
		},
		"FRK2874281D074070": {
			"bathingWaterIdentifier": "FRK2874281D074070",
			"nameText": "TALLOIRES MUNICIPALE",
			"quality2023": "1 - Excellent",
			"bwProfileUrl": "http://baignades.sante.gouv.fr/baignades/profil.do?idSite=003355&amp;codeDept=074",
			"distance": 9.991284259839072,
			"latitude": 45.83779,
			"longitude": 6.21169,
			"stops": [
				{
					"stop_name": "Thonon-les-Bains, Foret Ripail",
					"latitude": 46.386101,
					"longitude": 6.490499,
					"stop_id": 8785483,
					"distance": 607
				}
			]
		},
		"FRL0205161D005090": {
			"bathingWaterIdentifier": "FRL0205161D005090",
			"nameText": "TALLOIRES MUNICIPALE",
			"quality2023": "1 - Excellent",
			"bwProfileUrl": "http://baignades.sante.gouv.fr/baignades/profil.do?idSite=003355&amp;codeDept=074",
			"distance": 9.991284259839072,
			"latitude": 45.83779,
			"longitude": 6.21169,
			"stops": [
				{
					"stop_name": "Serre Chevalier Prelong",
					"latitude": 44.94611,
					"longitude": 6.560274,
					"stop_id": 8774962,
					"distance": 633
				}
			]
		},
		"FRL0306004M006205": {
			"bathingWaterIdentifier": "FRL0306004M006205",
			"nameText": "TALLOIRES MUNICIPALE",
			"quality2023": "1 - Excellent",
			"bwProfileUrl": "http://baignades.sante.gouv.fr/baignades/profil.do?idSite=003355&amp;codeDept=074",
			"distance": 9.991284259839072,
			"latitude": 45.83779,
			"longitude": 6.21169,
			"stops": [
				{
					"stop_name": "Juan-Les-Pins",
					"latitude": 43.571147,
					"longitude": 7.111879,
					"stop_id": 8700313,
					"distance": 665
				}
			]
		},
		"FRK2874281D074090": {
			"bathingWaterIdentifier": "FRK2874281D074090",
			"nameText": "TALLOIRES MUNICIPALE",
			"quality2023": "1 - Excellent",
			"bwProfileUrl": "http://baignades.sante.gouv.fr/baignades/profil.do?idSite=003355&amp;codeDept=074",
			"distance": 9.991284259839072,
			"latitude": 45.83779,
			"longitude": 6.21169,
			"stops": [
				{
					"stop_name": "Thonon-les-Bains, Foret Ripail",
					"latitude": 46.386101,
					"longitude": 6.490499,
					"stop_id": 8785483,
					"distance": 824
				}
			]
		}
	},
	"france_24": {
		"FRI1233108D033108": {
			"bathingWaterIdentifier": "FRI1233108D033108",
			"nameText": "PLAINE DES SPORTS",
			"quality2023": "1 - Excellent",
			"bwProfileUrl": "http://baignades.sante.gouv.fr/baignades/profil.do?idSite=002092&amp;codeDept=033",
			"distance": 3.0209167254913185,
			"latitude": 44.8027,
			"longitude": -0.53593,
			"stops": [
				{
					"stop_name": "Castillon",
					"latitude": 44.857081,
					"longitude": -0.040784,
					"stop_id": 8702983,
					"distance": 639
				}
			]
		}
	},
	"france_243": {
		"FRL0306029M006095": {
			"bathingWaterIdentifier": "FRL0306029M006095",
			"nameText": "LA GRAVETTE",
			"quality2023": "3 - Sufficient",
			"bwProfileUrl": "http://baignades.sante.gouv.fr/baignades/profil.do?idSite=001122&amp;codeDept=006",
			"distance": 9.405853990066794,
			"latitude": 43.58287,
			"longitude": 7.12927,
			"stops": [
				{
					"stop_name": "Cannes-la-Bocca",
					"latitude": 43.548674,
					"longitude": 6.986731,
					"stop_id": 8700911,
					"distance": 36
				}
			]
		},
		"FRL0306159M006545": {
			"bathingWaterIdentifier": "FRL0306159M006545",
			"nameText": "MIDI CENTRE",
			"quality2023": "2 - Good",
			"bwProfileUrl": "http://baignades.sante.gouv.fr/baignades/profil.do?idSite=001181&amp;codeDept=006",
			"distance": 5.496210523683846,
			"latitude": 43.5697,
			"longitude": 7.08423,
			"stops": [
				{
					"stop_name": "Villefranche-sur-Mer",
					"latitude": 43.706929,
					"longitude": 7.314172,
					"stop_id": 8702169,
					"distance": 90
				}
			]
		},
		"FRL0306004M006295": {
			"bathingWaterIdentifier": "FRL0306004M006295",
			"nameText": "LA GRAVETTE",
			"quality2023": "3 - Sufficient",
			"bwProfileUrl": "http://baignades.sante.gouv.fr/baignades/profil.do?idSite=001122&amp;codeDept=006",
			"distance": 9.405853990066794,
			"latitude": 43.58287,
			"longitude": 7.12927,
			"stops": [
				{
					"stop_name": "Biot(Alpes-Maritimes)",
					"latitude": 43.610897,
					"longitude": 7.126351,
					"stop_id": 8700723,
					"distance": 144
				}
			]
		},
		"FRL0306155M006181": {
			"bathingWaterIdentifier": "FRL0306155M006181",
			"nameText": "MIRANDOLE",
			"quality2023": "3 - Sufficient",
			"bwProfileUrl": "http://baignades.sante.gouv.fr/baignades/profil.do?idSite=003530&amp;codeDept=006",
			"distance": 3.499268000207791,
			"latitude": 43.55675,
			"longitude": 7.06282,
			"stops": [
				{
					"stop_name": "Golfe-Juan-Vallauris",
					"latitude": 43.566239,
					"longitude": 7.073288,
					"stop_id": 8700536,
					"distance": 233
				}
			]
		},
		"FRL0306155M006180": {
			"bathingWaterIdentifier": "FRL0306155M006180",
			"nameText": "MIRANDOLE",
			"quality2023": "3 - Sufficient",
			"bwProfileUrl": "http://baignades.sante.gouv.fr/baignades/profil.do?idSite=003530&amp;codeDept=006",
			"distance": 3.499268000207791,
			"latitude": 43.55675,
			"longitude": 7.06282,
			"stops": [
				{
					"stop_name": "Golfe-Juan-Vallauris",
					"latitude": 43.566239,
					"longitude": 7.073288,
					"stop_id": 8700536,
					"distance": 312
				}
			]
		},
		"FRL0306027M006375": {
			"bathingWaterIdentifier": "FRL0306027M006375",
			"nameText": "LA GRAVETTE",
			"quality2023": "3 - Sufficient",
			"bwProfileUrl": "http://baignades.sante.gouv.fr/baignades/profil.do?idSite=001122&amp;codeDept=006",
			"distance": 9.405853990066794,
			"latitude": 43.58287,
			"longitude": 7.12927,
			"stops": [
				{
					"stop_name": "Cros-de-Cagnes",
					"latitude": 43.660517,
					"longitude": 7.167082,
					"stop_id": 8700847,
					"distance": 367
				}
			]
		},
		"FRL0306011M006590": {
			"bathingWaterIdentifier": "FRL0306011M006590",
			"nameText": "LA GRAVETTE",
			"quality2023": "3 - Sufficient",
			"bwProfileUrl": "http://baignades.sante.gouv.fr/baignades/profil.do?idSite=001122&amp;codeDept=006",
			"distance": 9.405853990066794,
			"latitude": 43.58287,
			"longitude": 7.12927,
			"stops": [
				{
					"stop_name": "Beaulieu-sur-Mer",
					"latitude": 43.706623,
					"longitude": 7.331719,
					"stop_id": 8700446,
					"distance": 371
				}
			]
		},
		"FRL0306004M006220": {
			"bathingWaterIdentifier": "FRL0306004M006220",
			"nameText": "PONTON COURBET",
			"quality2023": "2 - Good",
			"bwProfileUrl": "http://baignades.sante.gouv.fr/baignades/profil.do?idSite=001111&amp;codeDept=006",
			"distance": 7.371686620666855,
			"latitude": 43.56836,
			"longitude": 7.10886,
			"stops": [
				{
					"stop_name": "Juan-Les-Pins",
					"latitude": 43.571147,
					"longitude": 7.111879,
					"stop_id": 8700313,
					"distance": 373
				}
			]
		},
		"FRL0306159M006550": {
			"bathingWaterIdentifier": "FRL0306159M006550",
			"nameText": "MIDI CENTRE",
			"quality2023": "2 - Good",
			"bwProfileUrl": "http://baignades.sante.gouv.fr/baignades/profil.do?idSite=001181&amp;codeDept=006",
			"distance": 5.496210523683846,
			"latitude": 43.5697,
			"longitude": 7.08423,
			"stops": [
				{
					"stop_name": "Villefranche-sur-Mer",
					"latitude": 43.706929,
					"longitude": 7.314172,
					"stop_id": 8702169,
					"distance": 383
				}
			]
		},
		"FRL0306032M006630": {
			"bathingWaterIdentifier": "FRL0306032M006630",
			"nameText": "MOURE ROUGE",
			"quality2023": "2 - Good",
			"bwProfileUrl": "http://baignades.sante.gouv.fr/baignades/profil.do?idSite=001154&amp;codeDept=006",
			"distance": 2.1490401716650799,
			"latitude": 43.54167,
			"longitude": 7.04011,
			"stops": [
				{
					"stop_name": "Cap-d'Ail",
					"latitude": 43.720529,
					"longitude": 7.39432,
					"stop_id": 8700829,
					"distance": 396
				}
			]
		},
		"FRL0306155M006175": {
			"bathingWaterIdentifier": "FRL0306155M006175",
			"nameText": "MIRANDOLE",
			"quality2023": "3 - Sufficient",
			"bwProfileUrl": "http://baignades.sante.gouv.fr/baignades/profil.do?idSite=003530&amp;codeDept=006",
			"distance": 3.499268000207791,
			"latitude": 43.55675,
			"longitude": 7.06282,
			"stops": [
				{
					"stop_name": "Golfe-Juan-Vallauris",
					"latitude": 43.566239,
					"longitude": 7.073288,
					"stop_id": 8700536,
					"distance": 402
				}
			]
		},
		"FRL0306029M006100": {
			"bathingWaterIdentifier": "FRL0306029M006100",
			"nameText": "LA GRAVETTE",
			"quality2023": "3 - Sufficient",
			"bwProfileUrl": "http://baignades.sante.gouv.fr/baignades/profil.do?idSite=001122&amp;codeDept=006",
			"distance": 9.405853990066794,
			"latitude": 43.58287,
			"longitude": 7.12927,
			"stops": [
				{
					"stop_name": "Cannes-la-Bocca",
					"latitude": 43.548674,
					"longitude": 6.986731,
					"stop_id": 8700911,
					"distance": 409
				}
			]
		},
		"FRL0306027M006380": {
			"bathingWaterIdentifier": "FRL0306027M006380",
			"nameText": "LA GRAVETTE",
			"quality2023": "3 - Sufficient",
			"bwProfileUrl": "http://baignades.sante.gouv.fr/baignades/profil.do?idSite=001122&amp;codeDept=006",
			"distance": 9.405853990066794,
			"latitude": 43.58287,
			"longitude": 7.12927,
			"stops": [
				{
					"stop_name": "Cros-de-Cagnes",
					"latitude": 43.660517,
					"longitude": 7.167082,
					"stop_id": 8700847,
					"distance": 463
				}
			]
		},
		"FRL0306029M006120": {
			"bathingWaterIdentifier": "FRL0306029M006120",
			"nameText": "MIDI",
			"quality2023": "1 - Excellent",
			"bwProfileUrl": "http://baignades.sante.gouv.fr/baignades/profil.do?idSite=001147&amp;codeDept=006",
			"distance": 1.0084236777398206,
			"latitude": 43.54815,
			"longitude": 7.01001,
			"stops": [
				{
					"stop_name": "Cannes",
					"latitude": 43.554193,
					"longitude": 7.020324,
					"stop_id": 8700144,
					"distance": 495
				}
			]
		},
		"FRL0306083M006720": {
			"bathingWaterIdentifier": "FRL0306083M006720",
			"nameText": "SABLE D'OR",
			"quality2023": "2 - Good",
			"bwProfileUrl": "http://baignades.sante.gouv.fr/baignades/profil.do?idSite=001162&amp;codeDept=006",
			"distance": 6.046980540586021,
			"latitude": 43.53316,
			"longitude": 6.9503,
			"stops": [
				{
					"stop_name": "Menton Garavan",
					"latitude": 43.78527,
					"longitude": 7.517247,
					"stop_id": 8701518,
					"distance": 515
				}
			]
		},
		"FRL0306059M006605": {
			"bathingWaterIdentifier": "FRL0306059M006605",
			"nameText": "MOURE ROUGE",
			"quality2023": "2 - Good",
			"bwProfileUrl": "http://baignades.sante.gouv.fr/baignades/profil.do?idSite=001154&amp;codeDept=006",
			"distance": 2.1490401716650799,
			"latitude": 43.54167,
			"longitude": 7.04011,
			"stops": [
				{
					"stop_name": "Eze",
					"latitude": 43.722183,
					"longitude": 7.356799,
					"stop_id": 8701100,
					"distance": 517
				}
			]
		},
		"FRL0306155M006170": {
			"bathingWaterIdentifier": "FRL0306155M006170",
			"nameText": "MIRANDOLE",
			"quality2023": "3 - Sufficient",
			"bwProfileUrl": "http://baignades.sante.gouv.fr/baignades/profil.do?idSite=003530&amp;codeDept=006",
			"distance": 3.499268000207791,
			"latitude": 43.55675,
			"longitude": 7.06282,
			"stops": [
				{
					"stop_name": "Golfe-Juan-Vallauris",
					"latitude": 43.566239,
					"longitude": 7.073288,
					"stop_id": 8700536,
					"distance": 518
				}
			]
		},
		"FRL0306004M006300": {
			"bathingWaterIdentifier": "FRL0306004M006300",
			"nameText": "LA GRAVETTE",
			"quality2023": "3 - Sufficient",
			"bwProfileUrl": "http://baignades.sante.gouv.fr/baignades/profil.do?idSite=001122&amp;codeDept=006",
			"distance": 9.405853990066794,
			"latitude": 43.58287,
			"longitude": 7.12927,
			"stops": [
				{
					"stop_name": "Biot(Alpes-Maritimes)",
					"latitude": 43.610897,
					"longitude": 7.126351,
					"stop_id": 8700723,
					"distance": 537
				}
			]
		},
		"FRL0306083M006700": {
			"bathingWaterIdentifier": "FRL0306083M006700",
			"nameText": "SABLE D'OR",
			"quality2023": "2 - Good",
			"bwProfileUrl": "http://baignades.sante.gouv.fr/baignades/profil.do?idSite=001162&amp;codeDept=006",
			"distance": 6.046980540586021,
			"latitude": 43.53316,
			"longitude": 6.9503,
			"stops": [
				{
					"stop_name": "Menton",
					"latitude": 43.774716,
					"longitude": 7.493156,
					"stop_id": 8700150,
					"distance": 546
				}
			]
		},
		"FRL0306083M006695": {
			"bathingWaterIdentifier": "FRL0306083M006695",
			"nameText": "SABLE D'OR",
			"quality2023": "2 - Good",
			"bwProfileUrl": "http://baignades.sante.gouv.fr/baignades/profil.do?idSite=001162&amp;codeDept=006",
			"distance": 6.046980540586021,
			"latitude": 43.53316,
			"longitude": 6.9503,
			"stops": [
				{
					"stop_name": "Menton",
					"latitude": 43.774716,
					"longitude": 7.493156,
					"stop_id": 8700150,
					"distance": 559
				}
			]
		},
		"FRL0306159M006555": {
			"bathingWaterIdentifier": "FRL0306159M006555",
			"nameText": "MIDI CENTRE",
			"quality2023": "2 - Good",
			"bwProfileUrl": "http://baignades.sante.gouv.fr/baignades/profil.do?idSite=001181&amp;codeDept=006",
			"distance": 5.496210523683846,
			"latitude": 43.5697,
			"longitude": 7.08423,
			"stops": [
				{
					"stop_name": "Villefranche-sur-Mer",
					"latitude": 43.706929,
					"longitude": 7.314172,
					"stop_id": 8702169,
					"distance": 590
				}
			]
		},
		"FRL0306027M006370": {
			"bathingWaterIdentifier": "FRL0306027M006370",
			"nameText": "LA GRAVETTE",
			"quality2023": "3 - Sufficient",
			"bwProfileUrl": "http://baignades.sante.gouv.fr/baignades/profil.do?idSite=001122&amp;codeDept=006",
			"distance": 9.405853990066794,
			"latitude": 43.58287,
			"longitude": 7.12927,
			"stops": [
				{
					"stop_name": "Cros-de-Cagnes",
					"latitude": 43.660517,
					"longitude": 7.167082,
					"stop_id": 8700847,
					"distance": 654
				}
			]
		},
		"FRL0306155M006165": {
			"bathingWaterIdentifier": "FRL0306155M006165",
			"nameText": "MIRANDOLE",
			"quality2023": "3 - Sufficient",
			"bwProfileUrl": "http://baignades.sante.gouv.fr/baignades/profil.do?idSite=003530&amp;codeDept=006",
			"distance": 3.499268000207791,
			"latitude": 43.55675,
			"longitude": 7.06282,
			"stops": [
				{
					"stop_name": "Golfe-Juan-Vallauris",
					"latitude": 43.566239,
					"longitude": 7.073288,
					"stop_id": 8700536,
					"distance": 666
				}
			]
		},
		"FRL0306029M006090": {
			"bathingWaterIdentifier": "FRL0306029M006090",
			"nameText": "LA GRAVETTE",
			"quality2023": "3 - Sufficient",
			"bwProfileUrl": "http://baignades.sante.gouv.fr/baignades/profil.do?idSite=001122&amp;codeDept=006",
			"distance": 9.405853990066794,
			"latitude": 43.58287,
			"longitude": 7.12927,
			"stops": [
				{
					"stop_name": "Le Bosquet",
					"latitude": 43.551532,
					"longitude": 6.98167,
					"stop_id": 8706479,
					"distance": 694
				}
			]
		},
		"FRL0306083M006690": {
			"bathingWaterIdentifier": "FRL0306083M006690",
			"nameText": "SABLE D'OR",
			"quality2023": "2 - Good",
			"bwProfileUrl": "http://baignades.sante.gouv.fr/baignades/profil.do?idSite=001162&amp;codeDept=006",
			"distance": 6.046980540586021,
			"latitude": 43.53316,
			"longitude": 6.9503,
			"stops": [
				{
					"stop_name": "Carnoles",
					"latitude": 43.761961,
					"longitude": 7.481551,
					"stop_id": 8700830,
					"distance": 724
				}
			]
		},
		"FRL0306083M006715": {
			"bathingWaterIdentifier": "FRL0306083M006715",
			"nameText": "SABLE D'OR",
			"quality2023": "2 - Good",
			"bwProfileUrl": "http://baignades.sante.gouv.fr/baignades/profil.do?idSite=001162&amp;codeDept=006",
			"distance": 6.046980540586021,
			"latitude": 43.53316,
			"longitude": 6.9503,
			"stops": [
				{
					"stop_name": "Menton Garavan",
					"latitude": 43.78527,
					"longitude": 7.517247,
					"stop_id": 8701518,
					"distance": 743
				}
			]
		},
		"FRL0306029M006125": {
			"bathingWaterIdentifier": "FRL0306029M006125",
			"nameText": "MIDI",
			"quality2023": "1 - Excellent",
			"bwProfileUrl": "http://baignades.sante.gouv.fr/baignades/profil.do?idSite=001147&amp;codeDept=006",
			"distance": 1.0084236777398206,
			"latitude": 43.54815,
			"longitude": 7.01001,
			"stops": [
				{
					"stop_name": "Cannes",
					"latitude": 43.554193,
					"longitude": 7.020324,
					"stop_id": 8700144,
					"distance": 745
				}
			]
		},
		"FRL0306004M006225": {
			"bathingWaterIdentifier": "FRL0306004M006225",
			"nameText": "PONTON COURBET",
			"quality2023": "2 - Good",
			"bwProfileUrl": "http://baignades.sante.gouv.fr/baignades/profil.do?idSite=001111&amp;codeDept=006",
			"distance": 7.371686620666855,
			"latitude": 43.56836,
			"longitude": 7.10886,
			"stops": [
				{
					"stop_name": "Juan-Les-Pins",
					"latitude": 43.571147,
					"longitude": 7.111879,
					"stop_id": 8700313,
					"distance": 760
				}
			]
		},
		"FRL0306027M006385": {
			"bathingWaterIdentifier": "FRL0306027M006385",
			"nameText": "LA GRAVETTE",
			"quality2023": "3 - Sufficient",
			"bwProfileUrl": "http://baignades.sante.gouv.fr/baignades/profil.do?idSite=001122&amp;codeDept=006",
			"distance": 9.405853990066794,
			"latitude": 43.58287,
			"longitude": 7.12927,
			"stops": [
				{
					"stop_name": "Cros-de-Cagnes",
					"latitude": 43.660517,
					"longitude": 7.167082,
					"stop_id": 8700847,
					"distance": 779
				}
			]
		},